WBIC,Lake Name,County,Area (acres),Area (ha),Max Depth (ft),Max Depth (m),Latitude,Longitude,Final Lake Class,Temp Transitional,Clarity Transitional,If not then (for 2-story and stocked trout lakes)
176000,Amey Pond,Adams,56,22.7,7,2.1,43.6471792,-89.6157144,Simple - Warm - Dark,n/a,n/a,n/a
1374300,Arkdale Lake (Millpond),Adams,55,22.3,6,1.8,44.0306221,-89.88152,Simple - Riverine,n/a,n/a,n/a
1377700,Arrowhead Lake (Manchester),Adams,350,141.6,30,9.1,44.2096963,-89.841425,Complex - Warm - Dark,no,no,n/a
1374800,Big Roche A Cri Lake,Adams,205,83.0,20,6.1,44.0581751,-89.8155436,Complex - Riverine,n/a,n/a,n/a
176600,Big Spring Pond,Adams,7,2.8,5,1.5,43.6702367,-89.6436943,Simple - Trout Pond,n/a,n/a,n/a
1378100,Camelot Lake,Adams,445,180.1,24,7.3,44.226917,-89.7648161,Complex - Warm - Dark,no,no,n/a
1345700,Castle Rock Lake*,Adams,13955,5647.4,36,11.0,43.9555583,-90.0378786,Complex - Warm - Dark,no,no,n/a
102600,Crooked Lake,Adams,48,19.4,56,17.1,43.7683539,-89.6069813,Simple - Warm - Clear,no,no,n/a
102800,Deep Lake,Adams,35,14.2,47,14.3,43.781208,-89.64544,Simple - Warm - Clear,n/a,n/a,n/a
1343600,Easton Lake,Adams,24,9.7,10,3.0,43.8408799,-89.7962088,Simple - Riverine,n/a,n/a,n/a
1352000,Friendship Lake (Millpond),Adams,115,46.5,16,4.9,43.9819927,-89.7992276,Complex - Riverine,n/a,n/a,n/a
103600,Goose Lake,Adams,81,32.8,18,5.5,43.79776,-89.636665,Simple - Warm - Dark,no,no,n/a
104000,Jordan Lake (Long),Adams,213,86.2,79,24.1,43.74315,-89.64718,Complex - Two Story,yes,yes,Complex - Cool - Dark
175700,Mason Lake*,Adams,855,346.0,9,2.7,43.6577952,-89.6079457,Complex - Warm - Dark,no,no,n/a
178500,McDougall Lake,Adams,9,3.6,8,2.4,43.7889776,-89.6313063,Simple - Warm - Dark,n/a,n/a,n/a
179100,McGinnis Lake,Adams,33,13.4,28,8.5,43.8423602,-89.6457456,Simple - Warm - Dark,no,no,n/a
106500,Parker Lake,Adams,59,23.9,30,9.1,43.7753424,-89.6350137,Simple - Warm - Clear,n/a,n/a,n/a
106600,Patrick Lake,Adams,50,20.2,10,3.0,43.8861801,-89.6588433,Simple - Warm - Dark,no,no,n/a
178700,Peppermill Lake (Beaver Pond),Adams,100,40.5,9,2.7,43.7882077,-89.6482751,Simple - Warm - Dark,no,no,n/a
107000,Rollers Lake,Adams,27,10.9,5,1.5,43.8869063,-89.6072749,Simple - Harsh - No Fishery,n/a,n/a,n/a
1377900,Sherwood Lake (Deer Lodge),Adams,246,99.6,27,8.2,44.2030616,-89.7914099,Complex - Warm - Dark,no,no,n/a
1017300,Silver Lake,Adams,7,2.8,11,3.4,43.8914025,-89.9058704,Simple - Harsh - No Fishery,n/a,n/a,n/a
117500,Wolf Lake,Adams,49,19.8,47,14.3,43.79552,-89.622345,Simple - Warm - Clear,n/a,n/a,n/a
2754000,Alex Pond,Ashland,9,3.6,,,46.5952947,-90.6849583,Simple - Harsh - Has Fishery,n/a,n/a,n/a
2410400,Augustine Lake,Ashland,166,67.2,10,3.0,46.1793185,-90.4607998,Simple - Cool - Clear,no,yes,n/a
2892100,Bad River Slough,Ashland,204,82.6,24,7.3,46.630295,-90.6480501,Complex - Riverine,n/a,n/a,n/a
2755100,Bass Lake,Ashland,28,11.3,12,3.7,46.3622257,-90.7865532,Simple - Cool - Clear,no,no,n/a
2405100,Bay Spring,Ashland,2,0.8,5,1.5,46.0664742,-90.664278,Simple - Trout Pond,n/a,n/a,n/a
2403200,Bear Lake,Ashland,204,82.6,9,2.7,45.9901265,-90.8051768,Complex - Riverine,n/a,n/a,n/a
2935400,Beaver Lake T44N R02W S16,Ashland,25,10.1,8,2.4,46.2842655,-90.6239516,Simple - Warm - Dark,n/a,n/a,n/a
2916200,Beaver Lake T44N R04W S07,Ashland,35,14.2,10,3.0,46.3007719,-90.9014586,Simple - Trout Pond,n/a,n/a,n/a
2916700,Beaverdam Lake,Ashland,118,47.8,19,5.8,46.3193079,-90.8142002,Simple - Cool - Clear,no,no,n/a
2751600,Big Bay Lagoon - Madeline Is,Ashland,105,42.5,10,3.0,46.809062,-90.6805614,Simple - Harsh - Has Fishery,n/a,n/a,n/a
2401300,Black Lake (Birch)*,Ashland,129,52.2,17,5.2,45.988478,-90.9328439,Complex - Cool - Clear,yes,no,n/a
1835800,Blueberry Lake,Ashland,2,0.8,7,2.1,46.0177073,-90.379801,Simple - Harsh - No Fishery,n/a,n/a,n/a
2752000,Bog Lake - Madeline Is,Ashland,36,14.6,5,1.5,46.8516904,-90.587525,Simple - Harsh - Has Fishery,n/a,n/a,n/a
2407900,Bullhead Lake,Ashland,14,5.7,13,4.0,46.0505529,-90.5799387,Simple - Harsh - Has Fishery,n/a,n/a,n/a
2283300,Butternut Lake*,Ashland,1006,407.1,32,9.8,45.9678407,-90.5186458,Complex - Cool - Dark,no,no,n/a
1838600,Cammerer Lake,Ashland,19,7.7,27,8.2,46.1679474,-90.4438021,Simple - Trout Pond,n/a,n/a,n/a
1838700,Camp Four Lake,Ashland,10,4.0,19,5.8,46.0530979,-90.6072003,Simple - Harsh - Has Fishery,n/a,n/a,n/a
2932700,Conley Lake,Ashland,6,2.4,25,7.6,46.2725502,-90.7047097,Simple - Warm - Dark,n/a,n/a,n/a
2430100,Cranberry Lake,Ashland,8,3.2,15,4.6,46.162952,-90.8824419,Simple - Warm - Dark,n/a,n/a,n/a
1842600,Cub Lake,Ashland,31,12.5,21,6.4,45.984318,-90.8178634,Simple - Warm - Dark,n/a,n/a,n/a
1842900,Cycle Lake,Ashland,37,15.0,23,7.0,46.0866607,-90.431887,Simple - Cool - Clear,no,no,n/a
2430300,Day Lake Flowage,Ashland,625,252.9,20,6.1,46.1874082,-90.9063791,Simple - Cool - Clear,no,no,n/a
2428700,Dead Horse Slough,Ashland,87,35.2,7,2.1,46.1577704,-90.8602536,Simple - Harsh - No Fishery,n/a,n/a,n/a
2407100,Ditmans Lake,Ashland,3,1.2,17,5.2,46.2190871,-90.5397435,Simple - Harsh - No Fishery,n/a,n/a,n/a
2760600,Dollar Lake,Ashland,13,5.3,17,5.2,46.2770292,-90.6052325,Simple - Warm - Dark,n/a,n/a,n/a
2936800,Dry Lake,Ashland,18,7.3,7,2.1,46.2224077,-90.5744998,Simple - Cool - Clear,no,no,n/a
2431000,Duck Lake*T43N R05W S13,Ashland,28,11.3,31,9.4,46.2009253,-90.9266822,Simple - Warm - Dark,n/a,n/a,n/a
2914800,English Lake,Ashland,244,98.7,40,12.2,46.3128645,-90.7682247,Complex - Cool - Clear,no,no,n/a
2935600,Eureka Lake,Ashland,39,15.8,28,8.5,46.2889393,-90.5792195,Simple - Cool - Clear,no,no,n/a
2935500,Galilee Lake,Ashland,213,86.2,23,7.0,46.2842857,-90.5931821,Complex - Cool - Clear,no,no,n/a
1850200,Gates Lake,Ashland,22,8.9,17,5.2,46.0993489,-90.691471,Simple - Cool - Clear,no,yes,n/a
2917900,Gilbert Lake,Ashland,4,1.6,13,4.0,46.299218,-90.8581126,Simple - Harsh - No Fishery,n/a,n/a,n/a
2406500,Gordon Lake,Ashland,142,57.5,28,8.5,46.1662845,-90.6175942,Complex - Cool - Clear,no,no,n/a
2291800,Hoffman Lake,Ashland,89,36.0,6,1.8,45.9970877,-90.3287948,Simple - Harsh - No Fishery,n/a,n/a,n/a
2892400,Honest John Lake,Ashland,93,37.6,8,2.4,46.6204936,-90.6287033,Simple - Harsh - Has Fishery,n/a,n/a,n/a
2917300,John Frank Lake,Ashland,5,2.0,11,3.4,46.3100519,-90.801241,Simple - Warm - Dark,n/a,n/a,n/a
2891700,Kakagon Slough,Ashland,766,310.0,26,7.9,46.6614806,-90.7456083,Complex - Riverine,n/a,n/a,n/a
2407400,Kempf Springs,Ashland,3,1.2,9,2.7,46.0664717,-90.6067962,Simple - Trout Pond,n/a,n/a,n/a
2405700,Kenyon Springs,Ashland,7,2.8,2,0.6,46.0772488,-90.6626858,Simple - Trout Pond,n/a,n/a,n/a
2936400,Knab Lake,Ashland,9,3.6,7,2.1,46.2019687,-90.5954981,Simple - Cool - Clear,no,no,n/a
2285700,Lindbergh Lake,Ashland,4,1.6,1,0.3,46.0564263,-90.4218083,Simple - Harsh - No Fishery,n/a,n/a,n/a
2285900,Little Butternut Lake,Ashland,10,4.0,11,3.4,46.0666341,-90.4327075,Simple - Warm - Dark,n/a,n/a,n/a
1861100,Little Clam Lake,Ashland,144,58.3,11,3.4,46.1540407,-90.8873786,Simple - Cool - Clear,yes,no,n/a
2934800,Long Lake (Leland)T44N R02W S29,Ashland,111,44.9,13,4.0,46.2595195,-90.6458609,Simple - Cool - Clear,no,no,n/a
2767000,Long Lake T45N R04W S19,Ashland,19,7.7,5,1.5,46.3616612,-90.9126452,Simple - Harsh - No Fishery,n/a,n/a,n/a
2767300,Loon Lake,Ashland,36,14.6,23,7.0,46.350158,-90.646306,Simple - Cool - Clear,no,no,n/a
2767500,Lost Lake,Ashland,10,4.0,19,5.8,46.5164373,-90.7088389,Simple - Warm - Dark,n/a,n/a,n/a
1864300,Luebke Lake,Ashland,8,3.2,9,2.7,46.0591821,-90.4119727,Simple - Harsh - No Fishery,n/a,n/a,n/a
2934000,McCarthy Lake,Ashland,42,17.0,2,0.6,46.2196939,-90.8001177,Simple - Harsh - Has Fishery,n/a,n/a,n/a
2935300,Meder Lake,Ashland,135,54.6,10,3.0,46.2757699,-90.6458607,Complex - Cool - Clear,no,no,n/a
1866000,Meyer Lake,Ashland,14,5.7,27,8.2,46.1349457,-90.5328707,Simple - Warm - Dark,n/a,n/a,n/a
2916900,Mineral Lake,Ashland,225,91.1,29,8.8,46.2943071,-90.8284447,Complex - Cool - Clear,no,no,n/a
2918200,Moquah Lake,Ashland,50,20.2,8,2.4,46.2467192,-90.8622511,Complex - Cool - Clear,yes,no,n/a
2430500,Mud Lake (Gormely),Ashland,10,4.0,14,4.3,46.1989744,-90.8838693,Simple - Harsh - Has Fishery,n/a,n/a,n/a
2405900,Muskellunge Lake,Ashland,22,8.9,8,2.4,46.1210403,-90.6807439,Simple - Cool - Clear,no,no,n/a
2285200,Parker Lake,Ashland,13,5.3,6,1.8,46.0137752,-90.4823279,Simple - Harsh - Has Fishery,n/a,n/a,n/a
2404800,Pelican Lake,Ashland,40,16.2,13,4.0,46.0652573,-90.6919365,Complex - Riverine,n/a,n/a,n/a
2905000,Pictured Rock Lake,Ashland,5,2.0,9,2.7,46.5625244,-90.6869365,Simple - Harsh - Has Fishery,n/a,n/a,n/a
1875200,Pole Lake,Ashland,13,5.3,21,6.4,46.1437016,-90.9083764,Simple - Trout Pond,n/a,n/a,n/a
2917200,Potter Lake,Ashland,29,11.7,11,3.4,46.2976004,-90.8030558,Complex - Cool - Clear,no,no,n/a
1880400,Seagels Lake,Ashland,7,2.8,9,2.7,46.1345759,-90.6316154,Simple - Harsh - Has Fishery,n/a,n/a,n/a
2915900,"Seitz Lake (Sietz, Sitz)",Ashland,19,7.7,6,1.8,46.313934,-90.875158,Simple - Trout Pond,n/a,n/a,n/a
2409700,Sells Lake,Ashland,16,6.5,5,1.5,46.1339548,-90.5106986,Complex - Warm - Dark,n/a,n/a,n/a
1881300,Slim Lake,Ashland,15,6.1,33,10.1,46.0335559,-90.5777639,Simple - Harsh - Has Fishery,n/a,n/a,n/a
2402100,Snoose Lake (Snooze),Ashland,24,9.7,13,4.0,45.9854188,-90.9065599,Simple - Cool - Clear,no,no,n/a
2935100,Snowshoe Lake (Billard),Ashland,24,9.7,11,3.4,46.2728969,-90.6166591,Simple - Warm - Dark,n/a,n/a,n/a
2918600,Spider Lake,Ashland,103,41.7,25,7.6,46.233029,-90.8595031,Complex - Cool - Clear,no,no,n/a
2936200,Spillerberg Lake,Ashland,75,30.4,24,7.3,46.1976096,-90.6740432,Complex - Cool - Clear,no,no,n/a
2905400,Sugarbush Lake,Ashland,4,1.6,9,2.7,46.5472338,-90.6964774,Simple - Harsh - No Fishery,n/a,n/a,n/a
2936600,Summit Lake,Ashland,91,36.8,6,1.8,46.1941984,-90.5974462,Simple - Warm - Dark,n/a,n/a,n/a
2922700,Tea Lake,Ashland,50,20.2,48,14.6,46.2930165,-90.9100481,Complex - Cool - Clear,no,no,n/a
2915800,Three Lake,Ashland,72,29.1,13,4.0,46.3194665,-90.8510574,Simple - Cool - Clear,no,no,n/a
2406700,Torrey Lake,Ashland,30,12.1,31,9.4,46.1566944,-90.6314655,Simple - Warm - Dark,n/a,n/a,n/a
1886700,Trout Lake,Ashland,5,2.0,28,8.5,46.1315987,-90.530344,Simple - Cool - Clear,n/a,n/a,n/a
2429000,"Twin Lake, East",Ashland,110,44.5,15,4.6,46.1897591,-90.8570448,Simple - Cool - Clear,no,no,n/a
2044800,"Twin Lake, West",Ashland,44,17.8,20,6.1,46.1900264,-90.8668898,Simple - Cool - Clear,no,no,n/a
2462400,"Twin Lakes, East",Ashland,24,9.7,24,7.3,46.3521529,-91.7329179,Simple - Cool - Dark,no,no,n/a
2599000,"Twin Lakes, West",Ashland,59,23.9,14,4.3,46.3458525,-91.7389786,Simple - Cool - Dark,no,no,n/a
2429600,Upper Clam Lake,Ashland,166,67.2,20,6.1,46.1528513,-90.906413,Complex - Cool - Dark,no,no,n/a
2894200,White River Flowage,Ashland,56,22.7,26,7.9,46.4963342,-90.9129782,Simple - Riverine,n/a,n/a,n/a
2047000,Wolf Lake,Ashland,5,2.0,17,5.2,46.2000997,-90.5427482,Simple - Harsh - Has Fishery,n/a,n/a,n/a
2905600,Wolfs Pond,Ashland,3,1.2,7,2.1,46.5509226,-90.6996335,Simple - Harsh - No Fishery,n/a,n/a,n/a
2428900,Woodtick Lake,Ashland,12,4.9,5,1.5,46.1755552,-90.863518,Simple - Harsh - Has Fishery,n/a,n/a,n/a
2406900,Zielke Lake,Ashland,21,8.5,16,4.9,46.1768026,-90.618596,Complex - Cool - Clear,no,no,n/a
1832100,Anderson Lake,Barron,14,5.7,17,5.2,45.603314,-91.9264898,Simple - Warm - Clear,no,no,n/a
1832400,Bailey Lake,Barron,43,17.4,7,2.1,45.3174568,-91.6732406,Simple - Harsh - Has Fishery,n/a,n/a,n/a
2096700,Barron Flowage No. 1,Barron,48,19.4,12,3.7,45.4067432,-91.8479116,Simple - Riverine,n/a,n/a,n/a
2096900,Barron Flowage No. 2,Barron,2,0.8,10,3.0,45.4068722,-91.8556889,Simple - Riverine,n/a,n/a,n/a
2097100,Barron Flowage No. 3,Barron,65,26.3,10,3.0,45.4148246,-91.8720087,Simple - Riverine,n/a,n/a,n/a
1832800,Bass Lake T33N R10W S34,Barron,118,47.8,14,4.3,45.2960866,-91.599582,Simple - Warm - Clear,no,no,n/a
1832900,Bass Lake T33N R14W S32,Barron,19,7.7,19,5.8,45.3022705,-92.1279209,Simple - Warm - Dark,n/a,n/a,n/a
1833100,Bass Lake T36N R10W S02,Barron,19,7.7,39,11.9,45.63407,-91.5757693,Simple - Cool - Clear,no,no,n/a
1833200,Bass Lake T36N R12W S10,Barron,23,9.3,21,6.4,45.6111135,-91.8322024,Simple - Cool - Clear,yes,no,n/a
1834300,Beauty Lake,Barron,11,4.5,10,3.0,45.6148985,-92.0620332,Simple - Harsh - Has Fishery,n/a,n/a,n/a
2081200,Beaver Dam Lake,Barron,1112,450.0,106,32.3,45.551175,-92.032233,Complex - Two Story,n/a,n/a,Complex - Cool - Dark
1835100,Big Dummy Lake,Barron,111,44.9,54,16.5,45.5720936,-91.9836918,Simple - Cool - Clear,yes,no,n/a
2079000,Big Moon Lake,Barron,191,77.3,48,14.6,45.3430945,-92.1192151,Complex - Cool - Dark,n/a,n/a,n/a
2632400,Blueberry Lake,Barron,8,3.2,6,1.8,45.5343361,-92.1294452,Simple - Harsh - No Fishery,n/a,n/a,n/a
1837000,Bowman Lake,Barron,12,4.9,17,5.2,45.5328641,-91.9307594,Simple - Harsh - Has Fishery,n/a,n/a,n/a
2100100,Buck Lake,Barron,57,23.1,20,6.1,45.5617182,-91.9705451,Simple - Warm - Dark,n/a,n/a,n/a
2455700,Bullhead Lake,Barron,14,5.7,8,2.4,45.5569084,-92.0980742,Simple - Harsh - No Fishery,n/a,n/a,n/a
2105800,Butternut Lake,Barron,141,57.1,15,4.6,45.6305259,-91.9045196,Simple - Warm - Dark,n/a,n/a,n/a
2102800,Cameron Flowage,Barron,72,29.1,9,2.7,45.4113567,-91.7565128,Simple - Warm - Dark,n/a,n/a,n/a
1840100,Chain Lake T36N R10W S07,Barron,107,43.3,19,5.8,45.6137322,-91.6436713,Simple - Warm - Clear,no,no,n/a
2101600,Chain Lakes T36N R13W S23,Barron,43,17.4,15,4.6,45.5895986,-91.9447492,Simple - Harsh - Has Fishery,n/a,n/a,n/a
2094000,Chetek Lake,Barron,770,311.6,22,6.7,45.3159558,-91.6291036,Complex - Warm - Dark,no,no,n/a
2090300,Couderay Lake,Barron,11,4.5,3,0.9,45.3778526,-91.5634509,Simple - Harsh - No Fishery,n/a,n/a,n/a
2661700,Cranberry Lake,Barron,9,3.6,28,8.5,45.5593155,-92.0808203,Simple - Warm - Dark,n/a,n/a,n/a
1842300,Crooked Lake,Barron,15,6.1,10,3.0,45.6153854,-91.8463038,Simple - Harsh - Has Fishery,n/a,n/a,n/a
2097800,Crystal Bay Lake,Barron,9,3.6,16,4.9,45.4275464,-91.937913,Simple - Warm - Dark,n/a,n/a,n/a
2459500,Crystal Lake,Barron,120,48.6,22,6.7,45.4829392,-92.1015081,Simple - Warm - Dark,no,no,n/a
2088000,Dallas Flowage,Barron,27,10.9,9,2.7,45.2614919,-91.8213301,Simple - Riverine,n/a,n/a,n/a
2102100,Deep Lake,Barron,2,0.8,19,5.8,45.6393423,-91.9797201,Simple - Harsh - No Fishery,n/a,n/a,n/a
2101800,Deer Lake,Barron,9,3.6,17,5.2,45.6269547,-91.9644224,Simple - Warm - Dark,n/a,n/a,n/a
2104500,Desair Lake,Barron,81,32.8,33,10.1,45.5444737,-91.7784932,Simple - Cool - Dark,no,no,n/a
1864000,"Devils Lake, Lower",Barron,162,65.6,26,7.9,45.6262606,-91.7610895,Complex - Cool - Dark,yes,no,n/a
2043500,"Devils Lake, Upper",Barron,86,34.8,10,3.0,45.635258,-91.767685,Complex - Warm - Dark,no,yes,n/a
1844900,Dietz Lake No. 1,Barron,21,8.5,15,4.6,45.4601431,-91.7016144,Simple - Warm - Dark,n/a,n/a,n/a
1845000,Dietz Lake No. 2,Barron,12,4.9,8,2.4,45.4529671,-91.7034417,Simple - Harsh - Has Fishery,n/a,n/a,n/a
1845100,Dietz Lake No. 3,Barron,16,6.5,23,7.0,45.4496092,-91.7025259,Simple - Warm - Dark,n/a,n/a,n/a
1845200,Dietz Lake No. 4,Barron,15,6.1,12,3.7,45.4444899,-91.7030231,Simple - Warm - Dark,n/a,n/a,n/a
2100300,Duck Lake,Barron,100,40.5,26,7.9,45.558484,-91.992525,Complex - Cool - Dark,yes,no,n/a
2630200,Echo Lake,Barron,161,65.2,41,12.5,45.4459338,-92.1296966,Complex - Warm - Clear,no,no,n/a
2463000,Elbow Lake,Barron,12,4.9,5,1.5,45.4023013,-92.1438519,Simple - Harsh - No Fishery,n/a,n/a,n/a
1849000,Firetag Lake,Barron,8,3.2,4,1.2,45.522326,-91.892854,Simple - Harsh - No Fishery,n/a,n/a,n/a
2104900,Fish Lake,Barron,8,3.2,34,10.4,45.560533,-91.8516873,Simple - Warm - Dark,n/a,n/a,n/a
2101900,Fox Lake,Barron,12,4.9,18,5.5,45.6261574,-91.9688732,Simple - Warm - Dark,n/a,n/a,n/a
1850100,Gates Lake,Barron,15,6.1,9,2.7,45.4955455,-92.0766539,Simple - Harsh - No Fishery,n/a,n/a,n/a
2099400,Ginder Lake,Barron,21,8.5,18,5.5,45.5259229,-91.8084851,Simple - Warm - Dark,n/a,n/a,n/a
1851100,Goose Lake,Barron,12,4.9,12,3.7,45.598513,-91.6503045,Simple - Harsh - Has Fishery,n/a,n/a,n/a
2100800,Granite Lake,Barron,154,62.3,34,10.4,45.5799477,-92.0068531,Complex - Cool - Dark,n/a,n/a,n/a
1851800,Greely Lake,Barron,56,22.7,13,4.0,45.5977914,-91.9948868,Simple - Warm - Dark,n/a,n/a,n/a
2109800,Hemlock Lake,Barron,357,144.5,21,6.4,45.5680414,-91.5647854,Complex - Cool - Dark,yes,no,n/a
1853500,Hillman Lake,Barron,23,9.3,10,3.0,45.406647,-92.134087,Simple - Warm - Dark,n/a,n/a,n/a
1853800,Hogback Lake,Barron,15,6.1,8,2.4,45.6231923,-91.9304226,Simple - Warm - Dark,n/a,n/a,n/a
2469800,Horseshoe Lake T36N R14W S03,Barron,115,46.5,19,5.8,45.6261195,-92.0871082,Complex - Warm - Dark,no,no,n/a
1856600,Johnnys Lake,Barron,8,3.2,6,1.8,45.5538655,-91.9551763,Simple - Harsh - No Fishery,n/a,n/a,n/a
2471900,Kelleys Lake,Barron,19,7.7,12,3.7,45.6158353,-92.147471,Simple - Harsh - Has Fishery,n/a,n/a,n/a
1857700,Kelly Lake,Barron,18,7.3,41,12.5,45.61106,-91.8980492,Simple - Warm - Dark,n/a,n/a,n/a
2081700,Kidney Lake,Barron,40,16.2,32,9.8,45.5783555,-92.0797187,Simple - Cool - Clear,no,no,n/a
1858100,Kirby Lake T36N R12W S08,Barron,7,2.8,13,4.0,45.6163889,-91.8739178,Simple - Warm - Dark,n/a,n/a,n/a
1858200,Kirby Lake T36N R14W S14,Barron,92,37.2,19,5.8,45.601096,-92.0661101,Simple - Cool - Clear,yes,no,n/a
2632100,Lake of The Woods (Bass),Barron,46,18.6,55,16.8,45.5314102,-92.1527418,Simple - Cool - Dark,n/a,n/a,n/a
2475500,Little Bass Lake,Barron,24,9.7,56,17.1,45.5861024,-92.0926909,Simple - Warm - Dark,n/a,n/a,n/a
2105900,Little Butternut Lake,Barron,22,8.9,16,4.9,45.6196898,-91.9081571,Simple - Warm - Dark,n/a,n/a,n/a
1861400,Little Dummy Lake,Barron,31,12.5,44,13.4,45.5784629,-91.9881927,Simple - Cool - Clear,no,no,n/a
1861600,Little Granite Lake,Barron,22,8.9,56,17.1,45.5727766,-91.9979775,Simple - Two Story,n/a,n/a,Simple - Cool - Clear
1862000,Little Lake,Barron,7,2.8,7,2.1,45.3978851,-91.8667935,Simple - Harsh - No Fishery,n/a,n/a,n/a
2079100,Little Moon Lake,Barron,27,10.9,30,9.1,45.3409677,-92.1526446,Simple - Cool - Dark,no,no,n/a
2661600,Little Sand Lake,Barron,101,40.9,36,11.0,45.5697937,-92.0913447,Simple - Cool - Dark,no,no,n/a
1862300,Little Silver Lake,Barron,18,7.3,20,6.1,45.5862912,-91.9313557,Simple - Warm - Dark,n/a,n/a,n/a
2075900,Long Lake T32N R14W S06,Barron,6,2.4,6,1.8,45.2851579,-92.1445758,Simple - Harsh - No Fishery,n/a,n/a,n/a
2630600,Long Lake T35N R14W S20,Barron,40,16.2,13,4.0,45.5045796,-92.1147097,Simple - Warm - Dark,n/a,n/a,n/a
2478600,Loon Lake,Barron,94,38.0,26,7.9,45.469462,-92.1289232,Complex - Warm - Clear,no,no,n/a
2098200,Lower Vermillion Lake,Barron,208,84.2,55,16.8,45.5127674,-91.9612515,Simple - Cool - Dark,yes,no,n/a
1866600,Minnow Lake,Barron,26,10.5,12,3.7,45.5588587,-91.5880751,Simple - Cool - Dark,no,no,n/a
1867100,Mitchell Lake,Barron,28,11.3,14,4.3,45.619288,-91.8380783,Simple - Warm - Clear,yes,no,n/a
2103200,Montanis Lake,Barron,200,80.9,14,4.3,45.4770465,-91.7054243,Complex - Warm - Dark,yes,no,n/a
1867600,Moon Lake,Barron,84,34.0,5,1.5,45.471972,-91.7207879,Simple - Harsh - Has Fishery,n/a,n/a,n/a
2089700,Moose Ear Lake,Barron,34,13.8,6,1.8,45.3261721,-91.5785391,Simple - Warm - Dark,n/a,n/a,n/a
2089300,Mud Lake T32N R11W S02,Barron,22,8.9,19,5.8,45.2862616,-91.6909695,Simple - Warm - Dark,n/a,n/a,n/a
2094600,Mud Lake T33N R10W S06,Barron,577,233.5,15,4.6,45.3640028,-91.6533067,Complex - Warm - Dark,no,no,n/a
2079600,Mud Lake T34N R14W S29,Barron,19,7.7,4,1.2,45.395817,-92.1214134,Simple - Harsh - No Fishery,n/a,n/a,n/a
2630500,Mud Lake T35N R14W S16,Barron,23,9.3,11,3.4,45.5116774,-92.1012555,Simple - Warm - Dark,n/a,n/a,n/a
2099800,Mud Lake T36N R12W S30,Barron,24,9.7,7,2.1,45.5742323,-91.9087168,Simple - Harsh - No Fishery,n/a,n/a,n/a
2104800,Mud Lake T36N R12W S34,Barron,4,1.6,17,5.2,45.5663122,-91.840323,Simple - Warm - Dark,n/a,n/a,n/a
1868600,Musket Lake (Mosquito),Barron,25,10.1,11,3.4,45.3637824,-92.0485502,Simple - Harsh - Has Fishery,n/a,n/a,n/a
2630800,North Lake,Barron,89,36.0,21,6.4,45.5292972,-92.1035639,Simple - Cool - Clear,yes,no,n/a
2625400,Old Mill Pond,Barron,5,2.0,9,2.7,45.3942317,-92.1379022,Simple - Harsh - No Fishery,n/a,n/a,n/a
1872900,Pea Viner Lake,Barron,3,1.2,6,1.8,45.55578,-91.9485827,Simple - Harsh - No Fishery,n/a,n/a,n/a
2098600,Peterson Lake,Barron,37,15.0,13,4.0,45.5199839,-91.9348506,Simple - Warm - Dark,n/a,n/a,n/a
1874400,Pickerel Lake,Barron,37,15.0,25,7.6,45.6300339,-91.6000618,Simple - Cool - Dark,no,no,n/a
1874800,Pine Lake,Barron,7,2.8,5,1.5,45.625831,-91.9471701,Simple - Harsh - Has Fishery,n/a,n/a,n/a
2094300,Pokegama Lake,Barron,506,204.8,19,5.8,45.326547,-91.6333109,Complex - Warm - Dark,no,no,n/a
2098000,Poskin Lake,Barron,150,60.7,30,9.1,45.4247296,-91.9762523,Complex - Warm - Dark,yes,no,n/a
2080000,Prairie Farm Flowage,Barron,29,11.7,8,2.4,45.2418384,-91.9813925,Complex - Riverine,n/a,n/a,n/a
2094100,Prairie Lake,Barron,1534,620.8,16,4.9,45.3585412,-91.6828894,Complex - Warm - Dark,no,no,n/a
1876600,Redman Lake,Barron,10,4.0,5,1.5,45.5410533,-91.9790565,Simple - Harsh - No Fishery,n/a,n/a,n/a
2103900,Rice Lake,Barron,939,380.0,19,5.8,45.507187,-91.7247399,Complex - Warm - Dark,yes,no,n/a
1877200,Robinson Lake,Barron,3,1.2,30,9.1,45.5813355,-91.9336349,Simple - Harsh - No Fishery,n/a,n/a,n/a
1878300,Round Lake T36N R10W S07,Barron,10,4.0,11,3.4,45.6195801,-91.6471849,Simple - Harsh - Has Fishery,n/a,n/a,n/a
1878400,Round Lake T36N R12W S10,Barron,18,7.3,16,4.9,45.6141126,-91.8413899,Simple - Harsh - Has Fishery,n/a,n/a,n/a
2661100,Sand Lake,Barron,322,130.3,57,17.4,45.5904316,-92.1080444,Complex - Cool - Clear,yes,no,n/a
2630700,Scott Lake,Barron,81,32.8,26,7.9,45.5186373,-92.1101414,Complex - Cool - Dark,yes,no,n/a
1881100,Silver Lake,Barron,337,136.4,91,27.7,45.5837875,-91.9212081,Complex - Two Story,n/a,n/a,Complex - Cool - Clear
1882000,Spider Lake,Barron,40,16.2,13,4.0,45.6275839,-91.9278176,Simple - Cool - Clear,no,no,n/a
1864100,"Spirit Lake, Lower",Barron,24,9.7,42,12.8,45.5606749,-92.0727386,Simple - Warm - Dark,n/a,n/a,n/a
2043600,"Spirit Lake, Upper",Barron,7,2.8,6,1.8,45.554183,-92.0688329,Simple - Harsh - No Fishery,n/a,n/a,n/a
1882800,Spring Lake,Barron,60,24.3,67,20.4,45.5807948,-92.0399645,Complex - Cool - Clear,n/a,n/a,n/a
2104100,Stump Lake,Barron,129,52.2,7,2.1,45.538313,-91.7369785,Simple - Riverine,n/a,n/a,n/a
2097500,Sweeny Pond,Barron,47,19.0,12,3.7,45.3920457,-91.9492548,Simple - Harsh - Has Fishery,n/a,n/a,n/a
1884800,Sylvan Lake (Pipe),Barron,67,27.1,37,11.3,45.609417,-91.9519421,Simple - Cool - Dark,no,no,n/a
2089500,Tenmile Lake,Barron,376,152.2,12,3.7,45.2926739,-91.6148063,Complex - Warm - Dark,no,no,n/a
2099900,Thirty Lake,Barron,73,29.5,27,8.2,45.5808041,-91.901262,Simple - Cool - Clear,yes,no,n/a
1885600,Thompson Lake,Barron,5,2.0,9,2.7,45.5534419,-91.9436394,Simple - Harsh - No Fishery,n/a,n/a,n/a
2079700,"Turtle Lake, Lower",Barron,276,111.7,24,7.3,45.3886873,-92.0762919,Complex - Warm - Dark,yes,no,n/a
2079800,"Turtle Lake, Upper",Barron,438,177.3,25,7.6,45.4226204,-92.0985377,Complex - Warm - Dark,yes,no,n/a
2104300,Tuscobia Lake,Barron,190,76.9,25,7.6,45.5416612,-91.7440982,Simple - Cool - Dark,no,no,n/a
2098800,Upper Vermillion Lake,Barron,89,36.0,9,2.7,45.5219835,-91.9504937,Simple - Warm - Dark,no,no,n/a
2660900,"Waterman Lake, Lower",Barron,14,5.7,21,6.4,45.6234304,-92.1223868,Simple - Cool - Clear,n/a,yes,n/a
2660800,"Waterman Lake, Upper",Barron,22,8.9,47,14.3,45.6299954,-92.1223643,Simple - Cool - Clear,n/a,yes,n/a
2630900,Wickerts Lake,Barron,14,5.7,12,3.7,45.5249776,-92.099288,Simple - Harsh - Has Fishery,n/a,n/a,n/a
2046200,Wildcat Lake,Barron,9,3.6,26,7.9,45.5728241,-92.0314651,Simple - Harsh - Has Fishery,n/a,n/a,n/a
2753800,Adeline Lake,Bayfield,3,1.2,27,8.2,46.3026061,-91.1665211,Simple - Warm - Clear,n/a,n/a,n/a
2753900,Ahmeek Lake,Bayfield,53,21.4,24,7.3,46.5228408,-91.4662555,Simple - Warm - Dark,n/a,n/a,n/a
2754200,Anderson Lake,Bayfield,33,13.4,46,14.0,46.4037035,-91.3171304,Simple - Cool - Clear,n/a,n/a,n/a
2754400,Angus Lake,Bayfield,34,13.8,13,4.0,46.5705142,-91.3568429,Simple - Cool - Clear,no,no,n/a
2898200,Anodanta Lake (Bass L. No 4),Bayfield,26,10.5,31,9.4,46.3819411,-91.2308525,Simple - Cool - Clear,yes,no,n/a
2754600,Armstrong Lake,Bayfield,48,19.4,43,13.1,46.371289,-91.2810321,Complex - Cool - Clear,no,no,n/a
2898500,Arrowhead Lake (Bass L. No 3),Bayfield,33,13.4,40,12.2,46.3751933,-91.2406575,Simple - Cool - Clear,no,no,n/a
2734000,Atkins Lake,Bayfield,176,71.2,80,24.4,46.2781932,-91.0363945,Complex - Two Story,n/a,n/a,Complex - Cool - Clear
2754700,Bailey Lake,Bayfield,9,3.6,8,2.4,46.6163925,-91.3434794,Simple - Harsh - No Fishery,n/a,n/a,n/a
2754800,Balsam Pond,Bayfield,7,2.8,45,13.7,46.3657606,-91.299602,Simple - Cool - Clear,n/a,n/a,n/a
2881200,Bark Bay Slough,Bayfield,116,46.9,7,2.1,46.8493066,-91.1962179,Simple - Riverine,n/a,n/a,n/a
2743000,Barnes Lake,Bayfield,16,6.5,7,2.1,46.2814134,-91.4410686,Simple - Harsh - No Fishery,n/a,n/a,n/a
2755200,Bass Lake (Pike Chain),Bayfield,41,16.6,18,5.5,46.5117444,-91.3785013,Simple - Cool - Clear,no,yes,n/a
2733600,Bass Lake T44N R06W S24,Bayfield,73,29.5,135,41.1,46.2780612,-91.0558859,Simple - Cool - Dark,no,yes,n/a
2754900,Bass Lake T44N R07W S13,Bayfield,56,22.7,32,9.8,46.2913827,-91.1901463,Simple - Cool - Clear,no,no,n/a
2755000,Bass Lake T44N R07W S33,Bayfield,18,7.3,40,12.2,46.2450638,-91.2553645,Simple - Warm - Dark,n/a,n/a,n/a
2451800,Bass Lake T45N R09W S06,Bayfield,20,8.1,16,4.9,46.4051654,-91.5381745,Simple - Harsh - Has Fishery,n/a,n/a,n/a
2901100,Bass Lake T46N R07W S28,Bayfield,76,30.8,43,13.1,46.4414677,-91.2634042,Simple - Cool - Clear,no,no,n/a
2875000,Bass Lake T47N R09W S16,Bayfield,10,4.0,18,5.5,46.5455309,-91.5016542,Simple - Warm - Dark,n/a,n/a,n/a
2904900,Basswood Lake,Bayfield,119,48.2,9,2.7,46.4663475,-91.3188901,Simple - Cool - Clear,no,no,n/a
2901800,Bear Lake,Bayfield,32,12.9,18,5.5,46.4914354,-91.3037798,Simple - Warm - Dark,n/a,n/a,n/a
2755400,Bear Pond,Bayfield,10,4.0,21,6.4,46.4120836,-91.3177563,Simple - Cool - Clear,yes,no,n/a
2749500,"Bearsdale Springs, Lower",Bayfield,2,0.8,9,2.7,46.3061344,-91.3905762,Simple - Trout Pond,n/a,n/a,n/a
2749700,"Bearsdale Springs, Upper",Bayfield,3,1.2,4,1.2,46.3039021,-91.3881281,Simple - Trout Pond,n/a,n/a,n/a
2755500,Beaver House Lake,Bayfield,2,0.8,8,2.4,46.5764694,-91.3429806,Simple - Harsh - No Fishery,n/a,n/a,n/a
2755600,Beaver Lake,Bayfield,19,7.7,39,11.9,46.4185137,-91.2701985,Simple - Cool - Clear,n/a,n/a,n/a
1834500,Beaver Lake*T43N R04W S31,Bayfield,24,9.7,14,4.3,46.1578777,-90.9229321,Simple - Harsh - No Fishery,n/a,n/a,n/a
2755700,Bell Lake (Belle),Bayfield,14,5.7,35,10.7,46.4788091,-91.3179731,Simple - Warm - Dark,n/a,n/a,n/a
2755800,Bellevue Lake (Long),Bayfield,65,26.3,45,13.7,46.4343557,-91.2767979,Complex - Cool - Clear,n/a,n/a,n/a
2879300,Bibon Lake (Flag),Bayfield,50,20.2,14,4.3,46.7823378,-91.4000863,Simple - Harsh - Has Fishery,n/a,n/a,n/a
2730400,Big Brook Lake,Bayfield,34,13.8,24,7.3,46.2579857,-91.3792806,Simple - Cool - Dark,no,yes,n/a
2453600,Birch Lake (Emerson No. 2),Bayfield,9,3.6,9,2.7,46.1626823,-91.16009,Simple - Harsh - No Fishery,n/a,n/a,n/a
2743200,Birch Lake T44N R09W S04,Bayfield,129,52.2,8,2.4,46.3192213,-91.4910615,Simple - Cool - Dark,no,no,n/a
2756100,Birch Lake T45N R05W S22,Bayfield,12,4.9,55,16.8,46.3662017,-90.9667126,Simple - Harsh - Has Fishery,n/a,n/a,n/a
2876600,Bismarck Lake,Bayfield,61,24.7,13,4.0,46.5334706,-91.4134854,Simple - Cool - Clear,no,no,n/a
2756200,Bladder Lake (Kransz),Bayfield,81,32.8,35,10.7,46.5964248,-91.3021381,Complex - Cool - Clear,yes,no,n/a
2454000,Blue Lake,Bayfield,21,8.5,22,6.7,46.4017363,-91.5335309,Simple - Warm - Dark,n/a,n/a,n/a
2902100,Bog Lake,Bayfield,12,4.9,13,4.0,46.4960745,-91.3271508,Simple - Warm - Dark,n/a,n/a,n/a
2742500,Bony Lake,Bayfield,191,77.3,55,16.8,46.3175925,-91.5071869,Complex - Two Story,n/a,n/a,Complex - Cool - Clear
2756600,Boris Lake,Bayfield,2,0.8,25,7.6,46.511875,-91.2195165,Simple - Harsh - No Fishery,n/a,n/a,n/a
2454800,Breakfast Lake,Bayfield,11,4.5,19,5.8,46.3885211,-91.5376951,Simple - Cool - Dark,no,no,n/a
2756800,Broadax Lake,Bayfield,4,1.6,27,8.2,46.415644,-91.2532038,Simple - Harsh - No Fishery,n/a,n/a,n/a
2756900,Buck Lake,Bayfield,6,2.4,11,3.4,46.539609,-91.2921636,Simple - Warm - Dark,n/a,n/a,n/a
1837700,Buffalo Lake,Bayfield,179,72.4,29,8.8,46.1641722,-90.9532678,Simple - Cool - Clear,no,no,n/a
2757000,Bufo Lake,Bayfield,21,8.5,35,10.7,46.4044629,-91.2989271,Simple - Cool - Clear,no,no,n/a
2456000,Bullhead Lake T44N R05W S29,Bayfield,36,14.6,11,3.4,46.2617919,-91.0307781,Simple - Warm - Dark,n/a,n/a,n/a
2757200,Bullhead Lake T45N R07W S20,Bayfield,8,3.2,58,17.7,46.3726358,-91.2658231,Simple - Warm - Dark,n/a,n/a,n/a
2765300,Bullhead Lake T46N R07W S08,Bayfield,7,2.8,46,14.0,46.4837384,-91.2680579,Simple - Cool - Clear,n/a,n/a,n/a
2903800,Buskey Bay,Bayfield,100,40.5,51,15.5,46.5278551,-91.3749379,Complex - Cool - Clear,no,no,n/a
2757300,Cabin Lake (Cable),Bayfield,4,1.6,8,2.4,46.6602279,-91.152542,Simple - Harsh - No Fishery,n/a,n/a,n/a
2729700,Cable Lake,Bayfield,166,67.2,43,13.1,46.2248502,-91.3066352,Simple - Cool - Clear,no,no,n/a
2757400,Camp Eleven Lake,Bayfield,13,5.3,15,4.6,46.5225593,-91.4978284,Simple - Warm - Dark,n/a,n/a,n/a
2456400,Camp Lake,Bayfield,13,5.3,8,2.4,46.2761502,-91.3871796,Simple - Harsh - No Fishery,n/a,n/a,n/a
2456500,Camp Nine Lake,Bayfield,10,4.0,12,3.7,46.3950418,-91.4047037,Simple - Harsh - No Fishery,n/a,n/a,n/a
2965700,Camp One Lake,Bayfield,37,15.0,40,12.2,46.5007283,-91.26147,Complex - Warm - Clear,n/a,n/a,n/a
2757600,Camp Two (Buck)T46NR07WS04,Bayfield,4,1.6,53,16.2,46.4887962,-91.2457187,Complex - Warm - Clear,n/a,n/a,n/a
2757700,Camp Two Lake T46NR08WS06,Bayfield,23,9.3,39,11.9,46.5008782,-91.41029,Simple - Harsh - Has Fishery,n/a,n/a,n/a
2757800,Canthook Lake,Bayfield,34,13.8,38,11.6,46.4725526,-91.3574463,Complex - Warm - Clear,n/a,n/a,n/a
2758000,Carroll Lake,Bayfield,19,7.7,11,3.4,46.5398541,-91.521696,Simple - Harsh - Has Fishery,n/a,n/a,n/a
2901400,Carson Pond,Bayfield,5,2.0,12,3.7,46.4705882,-91.2722253,Simple - Warm - Dark,n/a,n/a,n/a
1839700,Casper Lake (Hoof),Bayfield,10,4.0,15,4.6,46.1913611,-91.0147013,Simple - Warm - Dark,n/a,n/a,n/a
2758100,Cat Lake,Bayfield,5,2.0,34,10.4,46.5203898,-91.3780785,Simple - Harsh - No Fishery,n/a,n/a,n/a
2758300,Chelonia Lake (Flakefjord),Bayfield,1,0.4,4,1.2,46.4067727,-91.2780415,Simple - Harsh - No Fishery,n/a,n/a,n/a
2431300,Chippewa Lake,Bayfield,274,110.9,11,3.4,46.1996488,-90.9838445,Simple - Cool - Dark,no,no,n/a
2899200,Cisco Lake (First Bass),Bayfield,95,38.4,105,32.0,46.3628512,-91.2516359,Complex - Two Story,n/a,n/a,Complex - Cool - Clear
2457200,Claire Lake,Bayfield,4,1.6,3,0.9,46.4050143,-91.3982371,Simple - Harsh - No Fishery,n/a,n/a,n/a
2758500,Clay Lake,Bayfield,31,12.5,59,18.0,46.3985994,-91.2750991,Simple - Cool - Clear,no,no,n/a
2733900,Club Lake,Bayfield,83,33.6,22,6.7,46.2882314,-91.0560397,Simple - Warm - Dark,n/a,n/a,n/a
2758700,Coburn Lake,Bayfield,10,4.0,9,2.7,46.2789893,-91.1624851,Simple - Harsh - No Fishery,n/a,n/a,n/a
2922200,Coffee Lake,Bayfield,54,21.9,16,4.9,46.2821899,-90.9400013,Complex - Cool - Clear,no,no,n/a
2458400,Connor Lake,Bayfield,14,5.7,9,2.7,46.2946633,-91.4476914,Simple - Harsh - No Fishery,n/a,n/a,n/a
2732800,Cranberry Lake T44N R06W S34,Bayfield,58,23.5,20,6.1,46.2507667,-91.0996307,Complex - Warm - Dark,n/a,n/a,n/a
2741700,Cranberry Lake T44N R09W S30,Bayfield,131,53.0,12,3.7,46.2631688,-91.5448428,Complex - Cool - Dark,no,no,n/a
2759200,Cranberry Lake T45N R07W S03,Bayfield,4,1.6,25,7.6,46.4101646,-91.2376375,Simple - Harsh - No Fishery,n/a,n/a,n/a
2759300,Crane Lake,Bayfield,22,8.9,10,3.0,46.2915152,-91.2393372,Simple - Harsh - Has Fishery,n/a,n/a,n/a
2759600,Crooked Lake,Bayfield,93,37.6,34,10.4,46.5201255,-91.3248893,Simple - Cool - Clear,no,no,n/a
2897300,Crystal Lake T44N R06W S32,Bayfield,111,44.9,29,8.8,46.2464163,-91.1453594,Complex - Cool - Clear,no,no,n/a
2874700,Crystal Lake T47N R09W S15,Bayfield,91,36.8,25,7.6,46.5517749,-91.4758111,Complex - Warm - Clear,n/a,n/a,n/a
2759700,Crystal Lake T49N R06W S10,Bayfield,4,1.6,5,1.5,46.7452878,-91.1139928,Simple - Harsh - No Fishery,n/a,n/a,n/a
2462100,"Davis Lake, East",Bayfield,12,4.9,11,3.4,46.3026643,-91.0895808,Simple - Warm - Dark,n/a,n/a,n/a
2598700,"Davis Lake, West (Osborn)",Bayfield,16,6.5,7,2.1,46.3001313,-91.0979362,Simple - Warm - Dark,n/a,n/a,n/a
2460000,Dawn Lake,Bayfield,10,4.0,12,3.7,46.2234102,-91.3732186,Simple - Harsh - No Fishery,n/a,n/a,n/a
2873400,Dechamps Creek Spring,Bayfield,1,0.4,4,1.2,46.5994604,-91.3785879,Simple - Trout Pond,n/a,n/a,n/a
2760000,Deep Lake T46N R07W S04,Bayfield,13,5.3,61,18.6,46.4934995,-91.241652,Simple - Warm - Dark,n/a,n/a,n/a
2760100,Deep Lake T47N R09W S14,Bayfield,103,41.7,28,8.5,46.5553206,-91.4598045,Complex - Warm - Clear,n/a,n/a,n/a
2760200,Deer Lake,Bayfield,16,6.5,8,2.4,46.3537096,-91.1071976,Simple - Harsh - No Fishery,n/a,n/a,n/a
1844500,Dells Lake,Bayfield,103,41.7,42,12.8,46.1796854,-90.9861962,Simple - Warm - Dark,n/a,n/a,n/a
2901700,Delta Lake,Bayfield,180,72.8,30,9.1,46.4784789,-91.3003083,Simple - Cool - Clear,no,no,n/a
2742800,Devils Lake,Bayfield,23,9.3,54,16.5,46.2926887,-91.4958772,Complex - Warm - Clear,n/a,n/a,n/a
2897100,Diamond Lake,Bayfield,341,138.0,83,25.3,46.2626617,-91.1453086,Complex - Two Story,n/a,n/a,Complex - Cool - Clear
2472800,Dinner Camp Lake,Bayfield,14,5.7,5,1.5,46.2700221,-91.3199013,Simple - Harsh - No Fishery,n/a,n/a,n/a
2899400,Drummond Lake,Bayfield,99,40.1,49,14.9,46.3439246,-91.2611381,Complex - Cool - Clear,no,no,n/a
2760800,Dry Well Lake,Bayfield,4,1.6,23,7.0,46.3898253,-91.3004638,Simple - Harsh - No Fishery,n/a,n/a,n/a
2461800,Ducetts Lake,Bayfield,8,3.2,19,5.8,46.4041203,-91.4938177,Simple - Warm - Dark,n/a,n/a,n/a
2760900,Duck Lake T47N R08W S26,Bayfield,22,8.9,22,6.7,46.5210796,-91.3331656,Simple - Warm - Dark,n/a,n/a,n/a
2902900,"Eagle Lake (Murray,Inch)",Bayfield,170,68.8,52,15.8,46.4987767,-91.3572018,Complex - Cool - Clear,no,no,n/a
2741600,"Eau Claire Lake, Lower*",Bayfield,802,324.6,41,12.5,46.2732375,-91.5510748,Complex - Two Story,n/a,n/a,Complex - Cool - Clear
2742100,"Eau Claire Lake, Middle",Bayfield,902,365.0,66,20.1,46.2955347,-91.5214057,Complex - Two Story,n/a,n/a,Complex - Cool - Clear
2742700,"Eau Claire Lake, Upper",Bayfield,996,403.1,92,28.0,46.3095432,-91.4789403,Complex - Two Story,n/a,n/a,Complex - Cool - Clear
2899500,Egg Lake,Bayfield,4,1.6,27,8.2,46.3505191,-91.2637602,Simple - Harsh - No Fishery,n/a,n/a,n/a
2896900,Eighteenmile Creek Spring,Bayfield,6,2.4,11,3.4,46.288207,-91.1665774,Simple - Trout Pond,n/a,n/a,n/a
2462200,"Eightmile Lake, East",Bayfield,35,14.2,22,6.7,46.4185013,-91.4609899,Simple - Cool - Clear,no,no,n/a
2598800,"Eightmile Lake, West",Bayfield,16,6.5,18,5.5,46.4230895,-91.4797492,Simple - Warm - Dark,n/a,n/a,n/a
2761100,Eko Lake,Bayfield,3,1.2,18,5.5,46.6881635,-91.0541553,Complex - Warm - Clear,n/a,n/a,n/a
2463700,Emerson Lake (Emerson#4),Bayfield,9,3.6,28,8.5,46.1678226,-91.1492777,Simple - Harsh - Has Fishery,n/a,n/a,n/a
2761200,Erick Lake,Bayfield,10,4.0,26,7.9,46.5146658,-91.4901292,Simple - Harsh - No Fishery,n/a,n/a,n/a
2761400,Esox Lake (Bass Lake#2),Bayfield,51,20.6,48,14.6,46.3696066,-91.2536019,Simple - Cool - Clear,no,no,n/a
1847700,Evelyn Lake*(Perry),Bayfield,18,7.3,10,3.0,46.1535771,-91.0338264,Simple - Warm - Dark,n/a,n/a,n/a
2761600,Everett Lake,Bayfield,34,13.8,55,16.8,46.4701245,-91.2937405,Complex - Warm - Clear,n/a,n/a,n/a
2965500,Finger Lake,Bayfield,76,30.8,25,7.6,46.5114009,-91.2688688,Complex - Warm - Clear,n/a,n/a,n/a
2761800,Fire Lake,Bayfield,46,18.6,9,2.7,46.5778026,-91.3934151,Simple - Warm - Clear,no,no,n/a
2888200,Fish Creek Spring,Bayfield,2,0.8,3,0.9,46.5717488,-90.9858789,Simple - Trout Pond,n/a,n/a,n/a
2761900,Five Island Lake,Bayfield,48,19.4,24,7.3,46.512821,-91.348561,Simple - Warm - Dark,n/a,n/a,n/a
1858900,Five Lake (Fifth),Bayfield,63,25.5,14,4.3,46.1671414,-90.9859296,Simple - Warm - Dark,n/a,n/a,n/a
2762000,Flakefjord Lake (Chelonia),Bayfield,11,4.5,17,5.2,46.4035044,-91.2801034,Simple - Cool - Clear,yes,no,n/a
2762100,Flynn Lake T45N R07W S30,Bayfield,64,25.9,42,12.8,46.3537193,-91.2835396,Simple - Cool - Clear,no,no,n/a
2902800,Flynn Lake T46N R08W S03,Bayfield,29,11.7,9,2.7,46.4917471,-91.349836,Complex - Riverine,n/a,n/a,n/a
2465100,Frels Lake (Emerson No. 1),Bayfield,11,4.5,18,5.5,46.1646625,-91.1627438,Simple - Harsh - No Fishery,n/a,n/a,n/a
2734900,Friedbauer Lake,Bayfield,21,8.5,18,5.5,46.2702591,-91.0975129,Simple - Harsh - Has Fishery,n/a,n/a,n/a
2762300,Frog Lake,Bayfield,8,3.2,8,2.4,46.4436541,-91.3177518,Simple - Harsh - No Fishery,n/a,n/a,n/a
2465400,Fuller Lake,Bayfield,5,2.0,9,2.7,46.1676873,-91.3826968,Simple - Harsh - No Fishery,n/a,n/a,n/a
2465700,George Lake,Bayfield,46,18.6,50,15.2,46.3767913,-91.5401834,Simple - Cool - Clear,n/a,n/a,n/a
2762400,Getsey Lake,Bayfield,19,7.7,20,6.1,46.4976813,-91.2917488,Simple - Cool - Clear,no,no,n/a
2423900,Ghost Lake,Bayfield,132,53.4,27,8.2,46.1849433,-91.0161329,Simple - Cool - Clear,no,no,n/a
2426400,Hadley Lake*,Bayfield,39,15.8,17,5.2,46.1511223,-90.9684088,Simple - Cool - Dark,no,no,n/a
2762700,Half Moon (Millpond)T47NR08WS17,Bayfield,106,42.9,10,3.0,46.5614739,-91.397865,Simple - Riverine,no,no,n/a
2472900,Half Moon Lake T44N R08W S24,Bayfield,15,6.1,17,5.2,46.2758861,-91.3089496,Simple - Cool - Dark,no,no,n/a
2467900,Hammil Lake (Hammel),Bayfield,83,33.6,47,14.3,46.2617969,-91.3033662,Complex - Cool - Clear,n/a,n/a,n/a
2762800,Happles Lake,Bayfield,24,9.7,36,11.0,46.4799277,-91.3687158,Simple - Harsh - No Fishery,n/a,n/a,n/a
2903200,"Hart Lake (Heart,Wiehe)",Bayfield,259,104.8,54,16.5,46.5185313,-91.3618926,Complex - Cool - Clear,no,no,n/a
2468600,Hay Lake T45N R09W S18,Bayfield,16,6.5,5,1.5,46.3754096,-91.5478878,Simple - Harsh - No Fishery,n/a,n/a,n/a
2901600,Hay Lake T46N R07W S07,Bayfield,59,23.9,21,6.4,46.4790816,-91.2879758,Simple - Riverine,n/a,n/a,n/a
2763100,Heart Lake,Bayfield,24,9.7,19,5.8,46.4867029,-91.2834923,Simple - Harsh - Has Fishery,n/a,n/a,n/a
2468800,Henderson Lake,Bayfield,33,13.4,5,1.5,46.3371505,-91.4984082,Simple - Cool - Dark,no,no,n/a
2729500,Henry Lake,Bayfield,29,11.7,28,8.5,46.2384801,-91.3153487,Simple - Warm - Dark,n/a,n/a,n/a
2763400,Hicks Lake,Bayfield,6,2.4,9,2.7,46.5701812,-91.3411631,Simple - Harsh - No Fishery,n/a,n/a,n/a
2469000,Hidden Lake,Bayfield,34,13.8,15,4.6,46.1886662,-91.1471397,Simple - Cool - Clear,no,no,n/a
2469300,Hildebrand Lake(Emerson#3),Bayfield,17,6.9,42,12.8,46.1628513,-91.1669159,Simple - Cool - Clear,no,no,n/a
2902600,Hildur Lake (Bluebird),Bayfield,67,27.1,66,20.1,46.494978,-91.3376695,Complex - Cool - Clear,yes,no,n/a
2763500,Hobbs Lake,Bayfield,13,5.3,10,3.0,46.5818569,-91.3594093,Simple - Harsh - No Fishery,n/a,n/a,n/a
2763600,Hoist Lake,Bayfield,8,3.2,23,7.0,46.6671146,-91.2159892,Simple - Cool - Clear,no,no,n/a
2763700,Hollibar Lake,Bayfield,7,2.8,20,6.1,46.4609283,-91.2663054,Simple - Warm - Dark,n/a,n/a,n/a
2473000,Holly Lake,Bayfield,15,6.1,16,4.9,46.2705113,-91.306413,Simple - Warm - Dark,n/a,n/a,n/a
2735000,Holmes Lake,Bayfield,13,5.3,3,0.9,46.287967,-91.0860348,Simple - Harsh - No Fishery,n/a,n/a,n/a
2763800,Honey Lake,Bayfield,10,4.0,15,4.6,46.5478397,-91.2890353,Simple - Harsh - No Fishery,n/a,n/a,n/a
2473100,Horseshoe Lake T44N R07W S19,Bayfield,7,2.8,11,3.4,46.2793959,-91.3014088,Simple - Harsh - No Fishery,n/a,n/a,n/a
2764000,Horseshoe Lake T48N R07W S13,Bayfield,16,6.5,12,3.7,46.6424564,-91.1790778,Simple - Harsh - No Fishery,n/a,n/a,n/a
2764200,Hostrawser Lake,Bayfield,21,8.5,18,5.5,46.5465479,-91.4555867,Simple - Warm - Dark,n/a,n/a,n/a
2749900,Hyatt Spring,Bayfield,6,2.4,4,1.2,46.3239734,-91.3947211,Simple - Trout Pond,n/a,n/a,n/a
2470300,Idlewild Lake,Bayfield,16,6.5,22,6.7,46.325132,-91.535313,Simple - Harsh - Has Fishery,n/a,n/a,n/a
2764300,Inch Lake,Bayfield,31,12.5,41,12.5,46.4980834,-91.3465446,Simple - Cool - Clear,no,no,n/a
2764500,Indian Lake,Bayfield,26,10.5,35,10.7,46.3561842,-90.9601353,Simple - Warm - Dark,n/a,n/a,n/a
2877000,Iron Lake,Bayfield,249,100.8,12,3.7,46.5336836,-91.4421875,Complex - Warm - Clear,n/a,n/a,n/a
2876000,Iron River Flowage,Bayfield,76,30.8,17,5.2,46.5601071,-91.4279856,Complex - Riverine,no,no,n/a
2470800,Island Lake T45N R09W S18,Bayfield,59,23.9,51,15.5,46.3870899,-91.5284749,Simple - Cool - Clear,n/a,n/a,n/a
2764600,Island Lake T47N R08W S24,Bayfield,27,10.9,30,9.1,46.5384632,-91.3048351,Simple - Warm - Dark,n/a,n/a,n/a
2764700,Jackman Lake,Bayfield,12,4.9,22,6.7,46.595033,-91.3824468,Simple - Harsh - Has Fishery,n/a,n/a,n/a
2734200,Jackson Lake,Bayfield,142,57.5,13,4.0,46.249257,-91.1161401,Complex - Cool - Dark,no,no,n/a
2764800,Jesse Lake,Bayfield,11,4.5,17,5.2,46.5243564,-91.4565299,Simple - Harsh - Has Fishery,n/a,n/a,n/a
2732200,Joann Lake,Bayfield,12,4.9,14,4.3,46.2031636,-91.237711,Simple - Cool - Dark,no,no,n/a
2765000,Johnson Lake,Bayfield,11,4.5,12,3.7,46.5808835,-91.3331904,Simple - Harsh - No Fishery,n/a,n/a,n/a
2899000,Johnson Springs,Bayfield,2,0.8,12,3.7,46.3651585,-91.2324433,Simple - Trout Pond,n/a,n/a,n/a
2765200,Jones Lake,Bayfield,48,19.4,7,2.1,46.5423702,-91.4718789,Simple - Harsh - No Fishery,n/a,n/a,n/a
2472000,Kelly Lake,Bayfield,56,22.7,17,5.2,46.3582029,-91.4605359,Complex - Warm - Clear,n/a,n/a,n/a
2900500,Kern Lake,Bayfield,91,36.8,21,6.4,46.4306895,-91.2387053,Complex - Warm - Clear,no,no,n/a
2734700,Knotting Lake (Aqua),Bayfield,80,32.4,13,4.0,46.2739663,-91.1155323,Simple - Warm - Dark,n/a,n/a,n/a
2765700,Lake R,Bayfield,14,5.7,33,10.1,46.5682213,-91.3005273,Simple - Harsh - No Fishery,n/a,n/a,n/a
2766100,Lake Sixteen,Bayfield,9,3.6,31,9.4,46.2963731,-91.1311044,Simple - Warm - Dark,n/a,n/a,n/a
2473900,Lamereau Lake,Bayfield,10,4.0,3,0.9,46.4062809,-91.4247936,Simple - Harsh - No Fishery,n/a,n/a,n/a
2766300,Lee Lake,Bayfield,5,2.0,8,2.4,46.3973377,-91.3134425,Simple - Harsh - No Fishery,n/a,n/a,n/a
2766400,Lemon Lake,Bayfield,6,2.4,40,12.2,46.4773566,-91.2778188,Simple - Warm - Dark,n/a,n/a,n/a
2880300,Lenawee Lake,Bayfield,15,6.1,15,4.6,46.7126146,-91.2448458,Simple - Harsh - Has Fishery,n/a,n/a,n/a
2475200,Lerche Lake,Bayfield,18,7.3,37,11.3,46.1978037,-91.3460643,Simple - Warm - Dark,n/a,n/a,n/a
2766500,Lester Lake,Bayfield,24,9.7,44,13.4,46.5006101,-91.3038786,Simple - Warm - Dark,n/a,n/a,n/a
2766600,Lindgren Lake,Bayfield,7,2.8,12,3.7,46.5314696,-91.5069599,Simple - Harsh - No Fishery,n/a,n/a,n/a
2766700,Line Lake,Bayfield,8,3.2,18,5.5,46.4153889,-91.2480295,Simple - Warm - Dark,n/a,n/a,n/a
2735200,Little Bass Lake,Bayfield,43,17.4,15,4.6,46.2257212,-91.0466334,Simple - Warm - Dark,n/a,n/a,n/a
2898000,Little Hidden Lake,Bayfield,3,1.2,43,13.1,46.3144798,-91.1801066,Simple - Trout Pond,n/a,n/a,n/a
2476800,Little Island Lake,Bayfield,70,28.3,15,4.6,46.3697546,-91.5043898,Simple - Warm - Dark,n/a,n/a,n/a
2730100,Little Rosa Lake,Bayfield,7,2.8,16,4.9,46.2432677,-91.304649,Simple - Harsh - No Fishery,n/a,n/a,n/a
2882200,Little Siskiwit Lake,Bayfield,44,17.8,16,4.9,46.8012027,-91.1081019,Complex - Cool - Clear,no,no,n/a
2766900,Little Star Lake,Bayfield,6,2.4,68,20.7,46.3965263,-91.2185853,Simple - Two Story,n/a,n/a,Simple - Cool - Clear
2896800,Lizzie Lake (Davis),Bayfield,17,6.9,5,1.5,46.2885256,-91.1017081,Simple - Harsh - No Fishery,n/a,n/a,n/a
2767100,Long Lake T47N R08W S02,Bayfield,263,106.4,23,7.0,46.5818894,-91.3437371,Complex - Cool - Clear,yes,no,n/a
2767200,Long Lake T48N R05W S06,Bayfield,36,14.6,16,4.9,46.6618081,-91.0533929,Simple - Cool - Clear,no,no,n/a
2767400,Loon Lake,Bayfield,33,13.4,36,11.0,46.5705067,-91.3114601,Simple - Warm - Dark,n/a,n/a,n/a
2881400,Lost Creek Slough,Bayfield,15,6.1,11,3.4,46.8593,-91.13713,Simple - Harsh - Has Fishery,n/a,n/a,n/a
2767600,Lost Lake,Bayfield,25,10.1,25,7.6,46.5347531,-91.3807937,Simple - Warm - Dark,n/a,n/a,n/a
2889300,Louise Lake,Bayfield,4,1.6,13,4.0,46.5730891,-91.1085692,Simple - Trout Pond,n/a,n/a,n/a
2767800,Lund Lake,Bayfield,22,8.9,36,11.0,46.41262,-91.2636111,Simple - Cool - Clear,yes,no,n/a
2921100,Marengo Lake,Bayfield,99,40.1,26,7.9,46.3373936,-90.9794229,Complex - Riverine,n/a,n/a,n/a
2903400,McCarry Lake,Bayfield,32,12.9,21,6.4,46.5173557,-91.3718646,Complex - Cool - Dark,no,no,n/a
1865300,McCloud Lake (McLeod),Bayfield,64,25.9,11,3.4,46.1593151,-91.0511545,Simple - Harsh - Has Fishery,n/a,n/a,n/a
2768000,McGinnis Lake,Bayfield,3,1.2,11,3.4,46.6169352,-91.074938,Simple - Harsh - Has Fishery,n/a,n/a,n/a
2899700,Mill Pond Lake (Rust Flowage),Bayfield,62,25.1,10,3.0,46.3269859,-91.2611605,Complex - Riverine,n/a,n/a,n/a
2903700,Millicent Lake (Pike),Bayfield,183,74.1,53,16.2,46.5288068,-91.3677511,Complex - Cool - Clear,no,no,n/a
2482600,Mimi Lake,Bayfield,10,4.0,21,6.4,46.2773936,-91.5156537,Simple - Trout Pond,n/a,n/a,n/a
2768600,Mirror Lake T45N R07W S16,Bayfield,17,6.9,21,6.4,46.3729508,-91.2601768,Simple - Warm - Dark,n/a,n/a,n/a
2768700,Mirror Lake T47N R07W S06,Bayfield,13,5.3,48,14.6,46.5825922,-91.2942932,Simple - Warm - Dark,n/a,n/a,n/a
2768900,Moon Lake,Bayfield,41,16.6,19,5.8,46.5546332,-91.4090175,Simple - Cool - Clear,yes,no,n/a
2769100,Moose Lake,Bayfield,5,2.0,6,1.8,46.6684867,-91.1536837,Simple - Harsh - No Fishery,n/a,n/a,n/a
2769200,Moreland Lake,Bayfield,22,8.9,14,4.3,46.4956733,-91.5055218,Simple - Harsh - No Fishery,n/a,n/a,n/a
2483600,Motyka Lake,Bayfield,12,4.9,8,2.4,46.2444605,-91.2791202,Simple - Warm - Dark,n/a,n/a,n/a
2483700,Mountain Lake,Bayfield,11,4.5,14,4.3,46.3459979,-91.3739546,Simple - Warm - Dark,n/a,n/a,n/a
2769300,Muck Lake,Bayfield,9,3.6,26,7.9,46.4133595,-91.2736071,Simple - Harsh - Has Fishery,n/a,n/a,n/a
2483800,Muck Lake*T45N R10W S12,Bayfield,39,15.8,6,1.8,46.3906569,-91.553341,Simple - Harsh - Has Fishery,n/a,n/a,n/a
2769400,Mud Flat Lake,Bayfield,11,4.5,30,9.1,46.4886082,-91.2894276,Complex - Warm - Clear,n/a,n/a,n/a
2484600,Mud Lake T44N R07W S26,Bayfield,181,73.2,10,3.0,46.2554566,-91.2064429,Simple - Harsh - No Fishery,n/a,n/a,n/a
2769600,Mud Lake T46N R07W S29,Bayfield,8,3.2,8,2.4,46.4336401,-91.2643497,Simple - Harsh - No Fishery,n/a,n/a,n/a
2876800,Mud Lake T47N R09W S13,Bayfield,1,0.4,1,0.3,46.5512193,-91.4426759,Simple - Trout Pond,n/a,n/a,n/a
2903600,Muskellunge Lake (Butte),Bayfield,44,17.8,33,10.1,46.4979125,-91.3748613,Complex - Cool - Clear,yes,no,n/a
2426600,"Muskie Springs Lake(Bear Paw, Ethel)",Bayfield,22,8.9,10,3.0,46.1673679,-90.9675318,Simple - Cool - Clear,no,yes,n/a
2769800,Mystery Lake,Bayfield,14,5.7,13,4.0,46.4989919,-91.2847999,Complex - Warm - Clear,n/a,n/a,n/a
2732600,"Namekagon Lake(Spring, Garden)",Bayfield,3227,1305.9,50,15.2,46.2215681,-91.1019295,Complex - Cool - Dark,n/a,n/a,n/a
2486000,Nancy Lake,Bayfield,7,2.8,3,0.9,46.4058691,-91.4180136,Simple - Harsh - No Fishery,n/a,n/a,n/a
2770000,Nelson Lake,Bayfield,21,8.5,37,11.3,46.3799885,-91.2839305,Simple - Warm - Dark,n/a,n/a,n/a
2770100,Nestle Lake,Bayfield,6,2.4,10,3.0,46.5076882,-91.3754809,Simple - Harsh - No Fishery,n/a,n/a,n/a
2765500,Nokomis Lake,Bayfield,8,3.2,15,4.6,46.5286674,-91.2912281,Simple - Warm - Dark,n/a,n/a,n/a
2731300,North Porter Lake,Bayfield,26,10.5,33,10.1,46.2157296,-91.252687,Simple - Warm - Dark,n/a,n/a,n/a
2486500,Northeast Lake,Bayfield,88,35.6,50,15.2,46.2706346,-91.2078208,Simple - Cool - Clear,no,yes,n/a
2770300,Nymphia Lake (Numphia),Bayfield,10,4.0,41,12.5,46.386126,-91.2086701,Simple - Two Story,n/a,n/a,Simple - Cool - Clear
2487000,Ole Lake T43N R08W S27,Bayfield,23,9.3,45,13.7,46.1822542,-91.3643334,Simple - Warm - Dark,n/a,n/a,n/a
2487100,Ole Lake T45N R09W S18,Bayfield,13,5.3,11,3.4,46.3829291,-91.5382546,Simple - Cool - Dark,no,no,n/a
2919900,Olson Lake,Bayfield,20,8.1,9,2.7,46.3611022,-91.0235649,Simple - Warm - Dark,n/a,n/a,n/a
2895400,Osborn Lake,Bayfield,16,6.5,11,3.4,46.3324325,-91.1154915,Simple - Harsh - No Fishery,n/a,n/a,n/a
2770500,Overby Lake (Blaisdell),Bayfield,8,3.2,64,19.5,46.3680106,-91.2463532,Simple - Two Story,n/a,n/a,Simple - Cool - Clear
2900200,Owen Lake,Bayfield,1323,535.4,95,29.0,46.282991,-91.2270949,Complex - Two Story,n/a,n/a,Complex - Cool - Clear
2728700,Pacwawong Lake*,Bayfield,160,64.7,6,1.8,46.1504108,-91.3407821,Complex - Riverine,n/a,n/a,n/a
2770600,Patsy Lake,Bayfield,4,1.6,14,4.3,46.5443452,-91.2727384,Simple - Harsh - No Fishery,n/a,n/a,n/a
1872400,Patsy Lake*T43N R06W S33,Bayfield,56,22.7,13,4.0,46.1555566,-91.114021,Simple - Cool - Clear,no,yes,n/a
2770700,Perch Lake T45N R07W S05,Bayfield,70,28.3,77,23.5,46.4033746,-91.2657061,Simple - Two Story,n/a,n/a,Simple - Cool - Clear
2770800,Perch Lake T47N R08W S20,Bayfield,25,10.1,83,25.3,46.5422184,-91.3867026,Complex - Warm - Clear,n/a,n/a,n/a
2770900,Perch Lake T50N R06W S22,Bayfield,22,8.9,12,3.7,46.7951984,-91.0940463,Complex - Warm - Clear,n/a,n/a,n/a
2730800,Perry Lake,Bayfield,50,20.2,19,5.8,46.215928,-91.2678486,Complex - Cool - Clear,no,no,n/a
2771100,Peterson Lake,Bayfield,18,7.3,46,14.0,46.5521454,-91.3792785,Simple - Warm - Dark,n/a,n/a,n/a
2771200,Phantom Lake (Pantheon),Bayfield,44,17.8,35,10.7,46.4919702,-91.2953821,Simple - Cool - Clear,no,no,n/a
2771300,Physa Lake,Bayfield,10,4.0,34,10.4,46.4146327,-91.2823325,Simple - Warm - Dark,n/a,n/a,n/a
2489200,Pickerel Lake,Bayfield,81,32.8,38,11.6,46.3273816,-91.5142342,Complex - Cool - Clear,no,no,n/a
2489300,Picture Lake (Pitcher),Bayfield,58,23.5,8,2.4,46.2533292,-91.2878311,Simple - Cool - Dark,no,no,n/a
2489400,Pigeon Lake,Bayfield,213,86.2,26,7.9,46.3422781,-91.3490068,Simple - Cool - Clear,no,no,n/a
2904000,Pike Lake,Bayfield,17,6.9,23,7.0,46.536362,-91.3711425,Complex - Cool - Clear,yes,no,n/a
2771600,Pine Lake T47N R08W S22,Bayfield,14,5.7,34,10.4,46.5431044,-91.3503484,Simple - Warm - Dark,n/a,n/a,n/a
2771500,Pine Lake T48N R07W S10,Bayfield,10,4.0,28,8.5,46.6513864,-91.2365957,Simple - Cool - Clear,no,no,n/a
2771700,Planorbis Lake,Bayfield,10,4.0,31,9.4,46.4109412,-91.279356,Simple - Warm - Dark,n/a,n/a,n/a
2750900,Pond Lake T44N R08W S17,Bayfield,42,17.0,7,2.1,46.2864895,-91.4013512,Simple - Harsh - No Fishery,n/a,n/a,n/a
2771800,Pond Lake T45N R08W S14,Bayfield,8,3.2,67,20.4,46.384455,-91.3271344,Simple - Harsh - Has Fishery,n/a,n/a,n/a
2896600,Porcupine Lake,Bayfield,75,30.4,33,10.1,46.2812103,-91.1537834,Simple - Cool - Clear,no,no,n/a
2898700,Pot Lake,Bayfield,9,3.6,34,10.4,46.3561112,-91.2208106,Simple - Harsh - Has Fishery,n/a,n/a,n/a
2895700,Pre-Emption Creek Pond,Bayfield,3,1.2,14,4.3,46.3100099,-91.0766736,Simple - Trout Pond,n/a,n/a,n/a
2491300,Price Lake,Bayfield,74,29.9,16,4.9,46.2258237,-91.2725631,Simple - Warm - Dark,n/a,n/a,n/a
2491400,Priest Lake,Bayfield,29,11.7,52,15.8,46.3624965,-91.5334581,Simple - Cool - Clear,n/a,n/a,n/a
2771900,Rainbow Lake,Bayfield,14,5.7,21,6.4,46.4198428,-91.312354,Simple - Harsh - No Fishery,n/a,n/a,n/a
2772000,Rana Lake,Bayfield,6,2.4,48,14.6,46.3711436,-91.2634335,Simple - Harsh - Has Fishery,n/a,n/a,n/a
1876000,Range Line Lake,Bayfield,14,5.7,24,7.3,46.1682849,-90.9303016,Simple - Warm - Dark,n/a,n/a,n/a
2765800,Ree Lake,Bayfield,25,10.1,14,4.3,46.269407,-91.1297347,Simple - Warm - Dark,n/a,n/a,n/a
2772200,Reynard Lake,Bayfield,33,13.4,55,16.8,46.3928832,-91.2868235,Simple - Cool - Clear,no,no,n/a
2772300,Rib Lake,Bayfield,4,1.6,8,2.4,46.668557,-91.2196359,Simple - Harsh - No Fishery,n/a,n/a,n/a
2772400,Richardson Lake,Bayfield,25,10.1,32,9.8,46.5392813,-91.4637714,Simple - Warm - Dark,n/a,n/a,n/a
2743300,Robinson Lake,Bayfield,91,36.8,36,11.0,46.3272285,-91.4938279,Complex - Cool - Clear,no,no,n/a
2492800,Rock Lake,Bayfield,33,13.4,25,7.6,46.1765362,-91.1462714,Simple - Cool - Clear,no,no,n/a
2900000,Roger Lake T44N R07W S10,Bayfield,24,9.7,10,3.0,46.3119945,-91.2348399,Simple - Warm - Dark,n/a,n/a,n/a
2772600,Roger Lake T47N R08W S30,Bayfield,30,12.1,7,2.1,46.5258443,-91.4224832,Simple - Harsh - No Fishery,n/a,n/a,n/a
2493200,Rosa Lake,Bayfield,43,17.4,39,11.9,46.2421899,-91.3007873,Simple - Warm - Dark,n/a,n/a,n/a
2772900,Russell Lake,Bayfield,12,4.9,1,0.3,46.5385453,-91.4805428,Simple - Harsh - No Fishery,n/a,n/a,n/a
2765900,Ruth Lake,Bayfield,66,26.7,30,9.1,46.5035947,-91.4240736,Complex - Warm - Clear,yes,no,n/a
2494100,Ryberg Lake,Bayfield,8,3.2,7,2.1,46.2761253,-91.1993476,Simple - Harsh - No Fishery,n/a,n/a,n/a
2896100,Sage Lake,Bayfield,6,2.4,3,0.9,46.3238822,-91.1550404,Simple - Harsh - No Fishery,n/a,n/a,n/a
2494800,Samoset Lake (N Bass),Bayfield,46,18.6,40,12.2,46.2569812,-91.3082181,Complex - Warm - Clear,n/a,n/a,n/a
2494900,Sand Bar Lake,Bayfield,118,47.8,49,14.9,46.3685373,-91.5289353,Simple - Cool - Clear,n/a,n/a,n/a
2773100,Sand Lake,Bayfield,5,2.0,13,4.0,46.4628312,-91.4237129,Simple - Harsh - No Fishery,n/a,n/a,n/a
2773200,Sawdust Lake,Bayfield,17,6.9,36,11.0,46.570992,-91.272386,Simple - Cool - Clear,no,no,n/a
2773300,Sawmill Lake,Bayfield,12,4.9,45,13.7,46.4802994,-91.2465399,Simple - Warm - Dark,n/a,n/a,n/a
2743600,Shunenberg Lake,Bayfield,44,17.8,6,1.8,46.3278548,-91.4623419,Complex - Riverine,n/a,n/a,n/a
2750200,Shunenberg Springs,Bayfield,16,6.5,6,1.8,46.318109,-91.377765,Simple - Trout Pond,n/a,n/a,n/a
2773700,Siegal Lake,Bayfield,6,2.4,5,1.5,46.359066,-91.1102666,Simple - Harsh - No Fishery,n/a,n/a,n/a
2773800,Silver Lake,Bayfield,26,10.5,51,15.5,46.483397,-91.3750931,Simple - Warm - Dark,n/a,n/a,n/a
2773900,Silver Sack Lake,Bayfield,7,2.8,29,8.8,46.6065853,-91.3282696,Simple - Harsh - No Fishery,n/a,n/a,n/a
2774000,Simpson Lake,Bayfield,13,5.3,8,2.4,46.56468,-91.4588719,Simple - Harsh - No Fishery,n/a,n/a,n/a
2882300,Siskiwit Lake,Bayfield,330,133.5,13,4.0,46.795254,-91.1332017,Complex - Cool - Dark,no,yes,n/a
2473400,Sixteen Lake,Bayfield,34,13.8,10,3.0,46.2872764,-91.3685748,Simple - Trout Pond,n/a,n/a,n/a
2497600,Smear Lake,Bayfield,14,5.7,4,1.2,46.2495045,-91.3216247,Simple - Harsh - No Fishery,n/a,n/a,n/a
2743500,Smith Lake,Bayfield,31,12.5,8,2.4,46.3230803,-91.4590621,Complex - Riverine,n/a,n/a,n/a
2731200,South Porter Lake,Bayfield,12,4.9,20,6.1,46.2120379,-91.2471726,Simple - Harsh - No Fishery,n/a,n/a,n/a
2498200,Southwest Lake (South),Bayfield,31,12.5,6,1.8,46.2501088,-91.1671892,Simple - Harsh - No Fishery,n/a,n/a,n/a
2774200,Spider Lake T47N R07W S15,Bayfield,75,30.4,23,7.0,46.5428987,-91.2248329,Complex - Warm - Clear,n/a,n/a,n/a
2876200,Spider Lake T47N R08W S17,Bayfield,124,50.2,20,6.1,46.5428375,-91.4098706,Complex - Warm - Clear,yes,no,n/a
2904800,Spirit Lake,Bayfield,35,14.2,30,9.1,46.4754025,-91.3129895,Simple - Warm - Dark,n/a,n/a,n/a
2420400,Spring Lake T43N R06W S32,Bayfield,11,4.5,17,5.2,46.1607439,-91.1338687,Simple - Harsh - Has Fishery,n/a,n/a,n/a
2774400,Spring Lake T47N R09W S11,Bayfield,21,8.5,10,3.0,46.5696292,-91.4566901,Simple - Warm - Dark,n/a,n/a,n/a
2774500,Spruce Lake T44N R05W S27,Bayfield,17,6.9,7,2.1,46.2622158,-90.9739178,Simple - Harsh - No Fishery,n/a,n/a,n/a
2498700,Spruce Lake T44N R06W S14,Bayfield,5,2.0,7,2.1,46.2972854,-91.090337,Simple - Harsh - No Fishery,n/a,n/a,n/a
2774600,Square Lake,Bayfield,3,1.2,9,2.7,46.4476825,-91.3541709,Simple - Harsh - No Fishery,n/a,n/a,n/a
2898400,Star Lake,Bayfield,234,94.7,55,16.8,46.387363,-91.2258823,Simple - Cool - Clear,n/a,n/a,n/a
2774700,Steckbaur Lake,Bayfield,3,1.2,5,1.5,46.5868258,-91.3523483,Simple - Harsh - No Fishery,n/a,n/a,n/a
2774800,Steelhead Lake (Ell),Bayfield,17,6.9,51,15.5,46.4657712,-91.3494653,Complex - Cool - Clear,n/a,n/a,n/a
2499400,Stewart Lake,Bayfield,24,9.7,20,6.1,46.2890677,-91.2977284,Complex - Warm - Dark,n/a,n/a,n/a
2774900,Stratton Ponds,Bayfield,7,2.8,7,2.1,46.3868622,-91.2898323,Simple - Harsh - No Fishery,n/a,n/a,n/a
2775100,Summit Lake,Bayfield,3,1.2,4,1.2,46.6176921,-91.1602861,Simple - Harsh - No Fishery,n/a,n/a,n/a
2775300,Swede Lake,Bayfield,27,10.9,35,10.7,46.483259,-91.3122176,Simple - Warm - Dark,n/a,n/a,n/a
2743700,Swett Lake (Sweet),Bayfield,88,35.6,38,11.6,46.3298294,-91.4495938,Complex - Cool - Clear,no,no,n/a
2473500,Tahkodah Lake (East),Bayfield,152,61.5,18,5.5,46.243804,-91.2232132,Simple - Cool - Clear,no,no,n/a
2500900,Tank Lake T43N R06W S11,Bayfield,8,3.2,19,5.8,46.2184619,-91.0834998,Simple - Warm - Dark,n/a,n/a,n/a
2775400,Tank Lake T45N R06W S20,Bayfield,18,7.3,11,3.4,46.3682187,-91.1367003,Simple - Harsh - No Fishery,n/a,n/a,n/a
2750400,Tars Pond,Bayfield,2,0.8,3,0.9,46.3145459,-91.4369234,Simple - Trout Pond,n/a,n/a,n/a
2734100,Taylor Lake,Bayfield,94,38.0,15,4.6,46.2600147,-91.0472854,Complex - Cool - Clear,no,no,n/a
2775500,Tea Cup Lake,Bayfield,1,0.4,32,9.8,46.4304057,-91.2629474,Simple - Warm - Dark,n/a,n/a,n/a
2501700,Tomahawk Lake,Bayfield,134,54.2,42,12.8,46.3662174,-91.5219968,Complex - Cool - Clear,n/a,n/a,n/a
2775600,Toothpick Lake,Bayfield,7,2.8,20,6.1,46.503992,-91.3009313,Simple - Warm - Dark,n/a,n/a,n/a
2775700,Topside Lake,Bayfield,56,22.7,10,3.0,46.564521,-91.310858,Simple - Warm - Clear,no,no,n/a
2705000,Totagatic Lake,Bayfield,537,217.3,7,2.1,46.1680522,-91.403096,Simple - Harsh - Has Fishery,n/a,n/a,n/a
2775800,Tower Lake,Bayfield,13,5.3,54,16.5,46.4305741,-91.3134753,Complex - Warm - Clear,n/a,n/a,n/a
2502100,Trail Lake (Emerson No. 5),Bayfield,4,1.6,9,2.7,46.1621761,-91.174651,Simple - Harsh - No Fishery,n/a,n/a,n/a
2734500,Trapper Lake,Bayfield,84,34.0,31,9.4,46.2622486,-91.0913924,Complex - Cool - Clear,no,no,n/a
2502200,Travers Lake,Bayfield,20,8.1,10,3.0,46.4017981,-91.420613,Simple - Harsh - Has Fishery,n/a,n/a,n/a
2775900,Trout Lake,Bayfield,14,5.7,39,11.9,46.4911071,-91.3752517,Simple - Cool - Clear,n/a,n/a,n/a
2776000,Tub Lake,Bayfield,11,4.5,31,9.4,46.5032172,-91.2754355,Simple - Warm - Dark,n/a,n/a,n/a
2502900,Turtle Lake,Bayfield,22,8.9,7,2.1,46.3752147,-91.5303133,Simple - Warm - Dark,n/a,n/a,n/a
2903100,Twin Bear Lake (Crow),Bayfield,172,69.6,59,18.0,46.5058346,-91.367292,Complex - Cool - Clear,no,no,n/a
2503300,Twin Lake,Bayfield,28,11.3,8,2.4,46.3554606,-91.4404881,Simple - Warm - Dark,n/a,n/a,n/a
2761000,"Twin Lake, East",Bayfield,22,8.9,22,6.7,46.6849885,-91.0575485,Simple - Cool - Clear,no,no,n/a
2731800,"Twin Lake, North",Bayfield,53,21.4,25,7.6,46.2050286,-91.1423619,Simple - Cool - Clear,no,no,n/a
2769900,"Twin Lake, Northeast",Bayfield,8,3.2,13,4.0,46.5532632,-91.2755567,Simple - Harsh - Has Fishery,n/a,n/a,n/a
2770200,"Twin Lake, Northwest",Bayfield,7,2.8,19,5.8,46.5529083,-91.2794886,Simple - Warm - Dark,n/a,n/a,n/a
2494400,"Twin Lake, South",Bayfield,19,7.7,20,6.1,46.1979083,-91.1429261,Simple - Cool - Clear,no,no,n/a
2773400,"Twin Lake, Southeast",Bayfield,14,5.7,21,6.4,46.5502143,-91.2758551,Simple - Warm - Dark,n/a,n/a,n/a
2832200,"Twin Lake, West",Bayfield,16,6.5,52,15.8,46.6844348,-91.0632547,Simple - Cool - Clear,no,no,n/a
2904300,Two Lake,Bayfield,8,3.2,7,2.1,46.4539462,-91.2979964,Simple - Trout Pond,n/a,n/a,n/a
2832300,Wabigon Lake (Hubigoon),Bayfield,35,14.2,72,21.9,46.3836672,-91.3085849,Simple - Cool - Clear,no,no,n/a
2832400,Wanoka Lake,Bayfield,15,6.1,20,6.1,46.5451958,-91.2818545,Simple - Trout Pond,n/a,n/a,n/a
2832500,Wentzel Lake,Bayfield,18,7.3,14,4.3,46.5583886,-91.3159694,Simple - Warm - Dark,n/a,n/a,n/a
2600100,West Lake T43N R08W S15,Bayfield,8,3.2,30,9.1,46.1997595,-91.3475341,Simple - Warm - Dark,n/a,n/a,n/a
2832600,West Lake T46N R08W S11,Bayfield,11,4.5,17,5.2,46.4733142,-91.326214,Simple - Warm - Dark,n/a,n/a,n/a
2430800,White Bass Lake,Bayfield,112,45.3,30,9.1,46.1738129,-90.9373815,Simple - Warm - Dark,n/a,n/a,n/a
2600500,Wilderness Lake,Bayfield,63,25.5,18,5.5,46.4080691,-91.4087288,Simple - Warm - Dark,n/a,n/a,n/a
2729800,Wiley Lake,Bayfield,60,24.3,25,7.6,46.2334888,-91.3056634,Simple - Cool - Clear,no,no,n/a
2473600,"Willipyro Lake(Whipfast,Wiparo)",Bayfield,77,31.2,25,7.6,46.250861,-91.3097723,Simple - Warm - Dark,n/a,n/a,n/a
2832900,Wishbone Lake,Bayfield,21,8.5,54,16.5,46.3906341,-91.2790587,Simple - Cool - Clear,no,no,n/a
2833000,Wolf Lake,Bayfield,12,4.9,27,8.2,46.4951158,-91.2549615,Simple - Harsh - No Fishery,n/a,n/a,n/a
2833100,Wright Lake,Bayfield,24,9.7,13,4.0,46.5199508,-91.4785736,Simple - Harsh - Has Fishery,n/a,n/a,n/a
117800,Bay Beach Lagoons,Brown,42,17.0,15,4.6,44.5263989,-87.9758695,Simple - Warm - Dark,n/a,n/a,n/a
82900,Lilly Lake,Brown,40,16.2,21,6.4,44.4259999,-87.8527395,Simple - Warm - Dark,no,no,n/a
83000,Middle Lake,Brown,7,2.8,7,2.1,44.4215982,-87.8499476,Simple - Harsh - No Fishery,n/a,n/a,n/a
89800,Third Lake,Brown,5,2.0,15,4.6,44.4187885,-87.8441797,Simple - Harsh - No Fishery,n/a,n/a,n/a
1809600,Bensel Pond,Buffalo,44,17.8,5,1.5,44.1876561,-91.7792488,Simple - Harsh - Has Fishery,n/a,n/a,n/a
2050900,Duck Lake (Bennetts),Buffalo,15,6.1,3,0.9,44.4907829,-92.0442944,Simple - Warm - Dark,n/a,n/a,n/a
729990,Indian Point Slough,Buffalo,14,5.7,,,44.2674806,-91.8848917,Simple - Harsh - No Fishery,n/a,n/a,n/a
1813500,Lizzie Pauls Pond,Buffalo,44,17.8,4,1.2,44.2626024,-91.8654722,Simple - Warm - Dark,n/a,n/a,n/a
1820900,Mirror Lake,Buffalo,29,11.7,7,2.1,44.5735539,-91.6671398,Simple - Trout Pond,n/a,n/a,n/a
730300,Moseman Slough,Buffalo,39,15.8,,,44.2819639,-91.9008472,Simple - Harsh - No Fishery,n/a,n/a,n/a
2049300,Stump Lake,Buffalo,7,2.8,1,0.3,44.553834,-92.0222057,Simple - Warm - Dark,n/a,n/a,n/a
2676400,Ann Lake,Burnett,27,10.9,6,1.8,45.9094969,-92.2643061,Simple - Harsh - No Fishery,n/a,n/a,n/a
2675700,Austin Lake,Burnett,86,34.8,48,14.6,45.888478,-92.2716568,Simple - Warm - Clear,no,no,n/a
2449900,Baker Lake T39N R14W S18,Burnett,27,10.9,6,1.8,45.8654028,-92.1542702,Simple - Harsh - No Fishery,n/a,n/a,n/a
2450000,Baker Lake T39N R15W S02,Burnett,20,8.1,4,1.2,45.8934947,-92.1850804,Simple - Harsh - No Fishery,n/a,n/a,n/a
2450100,Banach Lake (Kiezer),Burnett,16,6.5,40,12.2,45.927705,-92.2556927,Simple - Two Story,n/a,n/a,Simple - Warm - Clear
2690200,Barrens Springs No. 1,Burnett,3,1.2,6,1.8,46.0996232,-92.0932942,Simple - Trout Pond,n/a,n/a,n/a
2690100,Barrens Springs No. 2,Burnett,1,0.4,1,0.3,46.090458,-92.08953,Simple - Trout Pond,n/a,n/a,n/a
2450400,Bartash Lake,Burnett,22,8.9,21,6.4,45.9429815,-92.1983925,Simple - Warm - Dark,n/a,n/a,n/a
2662400,Bashaw Lake,Burnett,171,69.2,16,4.9,45.7744273,-92.1411198,Simple - Warm - Dark,yes,no,n/a
2638600,Bass Lake T37N R18W S17,Burnett,43,17.4,45,13.7,45.6943779,-92.6284304,Simple - Warm - Dark,n/a,n/a,n/a
2450900,Bass Lake T38N R15W S09,Burnett,110,44.5,18,5.5,45.7897108,-92.2343582,Simple - Warm - Clear,no,no,n/a
2451000,Bass Lake T38N R15W S25,Burnett,39,15.8,34,10.4,45.7498638,-92.1719456,Simple - Warm - Dark,n/a,n/a,n/a
2451100,Bass Lake T39N R14W S24,Burnett,31,12.5,27,8.2,45.8551361,-92.0514997,Simple - Warm - Clear,no,no,n/a
2451200,Bass Lake T39N R16W S23,Burnett,226,91.5,24,7.3,45.8582704,-92.3078504,Simple - Warm - Clear,no,no,n/a
2451400,Bass Lake T40N R15W S23,Burnett,42,17.0,8,2.4,45.9377633,-92.184128,Simple - Warm - Dark,n/a,n/a,n/a
2675000,Bass Lake T40N R17W S13,Burnett,236,95.5,6,1.8,45.9515745,-92.4247896,Simple - Cool - Clear,no,no,n/a
2451500,Bass Lake T41N R14W S03,Burnett,30,12.1,35,10.7,46.0701168,-92.1065356,Simple - Warm - Dark,n/a,n/a,n/a
2451600,Bass Lake T41N R16W S13,Burnett,67,27.1,21,6.4,46.0347857,-92.3024151,Simple - Warm - Dark,n/a,n/a,n/a
2452900,Behr Lake,Burnett,38,15.4,15,4.6,45.9389689,-92.0831721,Simple - Warm - Dark,n/a,n/a,n/a
2678300,Benoit Lake,Burnett,297,120.2,41,12.5,45.8869051,-92.0908166,Simple - Two Story,yes,no,Simple - Cool - Clear
2453100,Berg Lake,Burnett,42,17.0,45,13.7,46.014373,-92.2828608,Simple - Cool - Clear,n/a,n/a,n/a
2705700,Big Bear Lake,Burnett,189,76.5,17,5.2,46.0169933,-92.1530195,Simple - Warm - Clear,no,no,n/a
2453400,Big Doctor Lake,Burnett,212,85.8,9,2.7,45.794316,-92.3985144,Simple - Warm - Clear,no,no,n/a
2676800,Big Sand Lake,Burnett,1400,566.6,55,16.8,45.8245853,-92.2195097,Complex - Warm - Clear,no,no,n/a
2453500,Birch Island Lake,Burnett,838,339.1,13,4.0,45.9426847,-92.1456053,Simple - Warm - Clear,no,no,n/a
2649700,Blomberg Lake (Bloomberg),Burnett,68,27.5,4,1.2,45.8117123,-92.4656799,Simple - Harsh - No Fishery,n/a,n/a,n/a
2454200,Bluff Lake,Burnett,51,20.6,23,7.0,45.9627691,-92.4852281,Simple - Warm - Dark,n/a,n/a,n/a
2454300,Bogey Lake,Burnett,24,9.7,20,6.1,45.9708042,-92.1814663,Simple - Warm - Dark,n/a,n/a,n/a
2454500,Boner Lake,Burnett,89,36.0,15,4.6,45.9415814,-92.1745113,Simple - Warm - Clear,no,no,n/a
2454700,Bradley Lake,Burnett,6,2.4,15,4.6,46.1075873,-92.0518496,Simple - Warm - Clear,yes,no,n/a
2455000,Bricher Lake,Burnett,27,10.9,25,7.6,45.9649697,-92.3432105,Simple - Warm - Dark,n/a,n/a,n/a
2671900,Briggs Lake,Burnett,55,22.3,13,4.0,46.0027561,-92.2631089,Simple - Riverine,n/a,n/a,n/a
2663800,Buck Lake T37N R14W S14,Burnett,18,7.3,31,9.4,45.6951206,-92.0685884,Simple - Warm - Clear,yes,n/a,n/a
2455500,Buck Lake T39N R15W S26,Burnett,67,27.1,6,1.8,45.8350681,-92.1833669,Simple - Warm - Dark,n/a,n/a,n/a
2674700,Buffalo Lake,Burnett,69,27.9,4,1.2,45.9463135,-92.3888742,Simple - Harsh - Has Fishery,n/a,n/a,n/a
2671400,Burlingame Lake,Burnett,57,23.1,19,5.8,46.0109014,-92.2975603,Simple - Warm - Clear,no,no,n/a
2673600,Cadotte Lake,Burnett,127,51.4,21,6.4,45.9680563,-92.1742215,Simple - Warm - Clear,no,no,n/a
2457000,Chase Lake,Burnett,6,2.4,30,9.1,45.9268187,-92.4676589,Simple - Harsh - No Fishery,n/a,n/a,n/a
2655300,"Clam Lake, Lower",Burnett,337,136.4,14,4.3,45.8264068,-92.3218786,Complex - Riverine,n/a,n/a,n/a
2656200,"Clam Lake, Upper",Burnett,1207,488.5,11,3.4,45.7929774,-92.3253591,Complex - Warm - Dark,no,no,n/a
2654500,Clam River Flowage,Burnett,359,145.3,29,8.8,45.9273028,-92.5184107,Complex - Two Story,n/a,n/a,Complex - Warm - Dark
2457600,Clear Lake,Burnett,115,46.5,55,16.8,45.7668844,-92.3845934,Complex - Warm - Clear,no,no,n/a
2458000,Clubhouse Lake,Burnett,25,10.1,26,7.9,45.9399572,-92.0575368,Simple - Warm - Dark,n/a,n/a,n/a
2458300,Conners Lake,Burnett,113,45.7,16,4.9,45.9113118,-92.3030393,Simple - Warm - Clear,no,no,n/a
2458500,Corwick Lake,Burnett,6,2.4,25,7.6,45.9477553,-92.1969221,Simple - Warm - Dark,n/a,n/a,n/a
2458600,Cranberry Lake T38N R15W S05,Burnett,79,32.0,23,7.0,45.7983288,-92.251055,Simple - Warm - Dark,n/a,n/a,n/a
2458700,Cranberry Lake T40N R14W S04,Burnett,14,5.7,2,0.6,45.9780876,-92.0960313,Simple - Harsh - No Fishery,n/a,n/a,n/a
2670700,Cranberry Lake T41N R16W S35,Burnett,82,33.2,26,7.9,45.9922766,-92.3172549,Simple - Warm - Clear,no,no,n/a
2458800,Crescent Lake,Burnett,36,14.6,11,3.4,45.9498726,-92.1027882,Simple - Warm - Clear,yes,no,n/a
2459100,Crooked Lake T38N R16W S08,Burnett,180,72.8,10,3.0,45.7959495,-92.370674,Simple - Warm - Clear,no,no,n/a
2459200,Crooked Lake T40N R15W S07,Burnett,254,102.8,13,4.0,45.9616089,-92.2847217,Simple - Warm - Clear,no,no,n/a
2459600,Crystal Lake,Burnett,32,12.9,5,1.5,45.9358124,-92.2602428,Simple - Harsh - Has Fishery,n/a,n/a,n/a
2673200,Culbertson Lake,Burnett,28,11.3,34,10.4,45.9680661,-92.2137167,Simple - Warm - Clear,no,no,n/a
2673300,Culbertson Springs,Burnett,8,3.2,9,2.7,45.9603027,-92.212857,Simple - Trout Pond,n/a,n/a,n/a
2674500,Danbury Flowage,Burnett,256,103.6,10,3.0,45.948768,-92.4037611,Complex - Two Story,n/a,n/a,Complex - Warm - Dark
2460300,Deep Lake,Burnett,34,13.8,58,17.7,45.9376853,-92.0636913,Simple - Warm - Dark,n/a,n/a,n/a
2460700,Deer Lake,Burnett,157,63.5,23,7.0,46.0428634,-92.1763142,Simple - Warm - Clear,no,no,n/a
2674200,Des Moines Lake (Sucker),Burnett,229,92.7,37,11.3,45.9966023,-92.1350056,Simple - Warm - Clear,no,no,n/a
2461100,Devils Lake,Burnett,1001,405.1,24,7.3,45.909279,-92.3377698,Complex - Warm - Clear,no,no,n/a
2461500,Doctor Lake,Burnett,64,25.9,7,2.1,45.787344,-92.4165262,Simple - Harsh - Has Fishery,n/a,n/a,n/a
2689700,Dogtown Springs,Burnett,6,2.4,8,2.4,46.0634598,-92.151011,Simple - Trout Pond,n/a,n/a,n/a
2461700,Dubois Lake,Burnett,71,28.7,25,7.6,45.9094855,-92.0805,Simple - Warm - Dark,n/a,n/a,n/a
2651800,Dunham Lake,Burnett,243,98.3,63,19.2,45.7564144,-92.4719102,Complex - Two Story,n/a,n/a,Complex - Warm - Clear
2462000,Durand Lake,Burnett,29,11.7,6,1.8,45.9245229,-92.0983982,Simple - Harsh - No Fishery,n/a,n/a,n/a
2462600,Eagle Lake T40N R14W S26,Burnett,22,8.9,3,0.9,45.9261874,-92.0754243,Simple - Harsh - No Fishery,n/a,n/a,n/a
2672100,Eagle Lake T41N R15W S34,Burnett,71,28.7,15,4.6,45.9905481,-92.2298358,Simple - Warm - Clear,no,no,n/a
2462900,Echo Lake,Burnett,24,9.7,9,2.7,45.928664,-92.3595471,Simple - Warm - Dark,n/a,n/a,n/a
2670900,Falk Lake,Burnett,82,33.2,32,9.8,45.9785196,-92.3185144,Complex - Warm - Clear,no,no,n/a
2464000,Fawn Lake,Burnett,30,12.1,14,4.3,46.0336236,-92.1796592,Simple - Warm - Dark,n/a,n/a,n/a
1848400,Fenton Lake,Burnett,17,6.9,8,2.4,45.6662163,-91.7391053,Simple - Harsh - Has Fishery,n/a,n/a,n/a
2464200,Fern Lake*,Burnett,17,6.9,7,2.1,45.72587,-92.4249716,Simple - Harsh - No Fishery,n/a,n/a,n/a
2464300,Ferry Lake,Burnett,16,6.5,36,11.0,46.0128667,-92.1252497,Simple - Warm - Dark,n/a,n/a,n/a
2464400,Fish Lake T38N R16W S06,Burnett,94,38.0,7,2.1,45.8098216,-92.3920352,Simple - Warm - Clear,yes,no,n/a
2464500,Fish Lake T40N R14W S04,Burnett,356,144.1,29,8.8,45.9725093,-92.1172361,Complex - Warm - Clear,no,no,n/a
2641500,Freedom Lakes*,Burnett,106,42.9,4,1.2,45.635695,-92.5666077,Simple - Harsh - No Fishery,n/a,n/a,n/a
2465200,Fremstadt Lake,Burnett,88,35.6,22,6.7,45.9445742,-92.356405,Simple - Warm - Dark,n/a,n/a,n/a
2465300,Frog Lake (Prinel),Burnett,22,8.9,2,0.6,46.0260389,-92.0860611,Simple - Warm - Dark,n/a,n/a,n/a
2677700,Gaslyn Lake,Burnett,164,66.4,12,3.7,45.8999016,-92.1167451,Simple - Cool - Dark,no,no,n/a
2662900,Glendenning Lake,Burnett,20,8.1,3,0.9,45.8053888,-92.042122,Simple - Harsh - No Fishery,n/a,n/a,n/a
2466300,Godfrey Lake,Burnett,56,22.7,41,12.5,45.7296657,-92.3436544,Simple - Warm - Clear,no,no,n/a
2466500,Goose Lake,Burnett,68,27.5,6,1.8,45.972511,-92.0714314,Simple - Harsh - Has Fishery,n/a,n/a,n/a
2651200,Grass Lake*,Burnett,56,22.7,3,0.9,45.7266698,-92.4924059,Simple - Harsh - No Fishery,n/a,n/a,n/a
2467200,Green Lake,Burnett,274,110.9,6,1.8,45.9110963,-92.192964,Simple - Cool - Dark,no,no,n/a
2467300,Greenwood Lake,Burnett,7,2.8,6,1.8,46.0492958,-92.15194,Simple - Harsh - No Fishery,n/a,n/a,n/a
2671100,Gull Lake,Burnett,182,73.7,19,5.8,45.9838678,-92.3030863,Simple - Warm - Clear,no,no,n/a
2467700,Ham Lake,Burnett,324,131.1,29,8.8,45.9661535,-92.2683997,Simple - Warm - Clear,no,no,n/a
2674000,Hanscom Lake,Burnett,127,51.4,7,2.1,45.9759457,-92.1436815,Simple - Cool - Clear,no,yes,n/a
2468700,Hayden Lake,Burnett,59,23.9,12,3.7,45.9818212,-92.3540493,Simple - Warm - Dark,n/a,n/a,n/a
2638400,Holmes Lake,Burnett,54,21.9,26,7.9,45.658285,-92.6487502,Simple - Warm - Dark,yes,no,n/a
2469900,Horseshoe Lake,Burnett,17,6.9,29,8.8,45.8615522,-92.2794479,Simple - Warm - Dark,n/a,n/a,n/a
2651100,Hunters Lake,Burnett,63,25.5,5,1.5,45.7350642,-92.496302,Simple - Harsh - No Fishery,n/a,n/a,n/a
2651700,Indian Lake,Burnett,17,6.9,15,4.6,45.7590207,-92.5310082,Simple - Warm - Dark,n/a,n/a,n/a
2638100,Isaac Lake,Burnett,17,6.9,22,6.7,45.7190632,-92.6370802,Simple - Harsh - Has Fishery,n/a,n/a,n/a
2470700,Island Lake,Burnett,23,9.3,56,17.1,46.0579381,-92.2735695,Simple - Warm - Dark,n/a,n/a,n/a
2471600,Johnson Lake T40N R16W S23,Burnett,397,160.7,23,7.0,45.9408503,-92.3127466,Simple - Warm - Clear,no,no,n/a
2471700,Johnson Lake T41N R15W S24,Burnett,28,11.3,7,2.1,46.0196218,-92.188945,Simple - Cool - Clear,no,yes,n/a
2471800,Kapes Lake (Miller),Burnett,22,8.9,3,0.9,45.7798501,-92.3755753,Simple - Harsh - No Fishery,n/a,n/a,n/a
2676200,Keizer Lake,Burnett,24,9.7,4,1.2,45.9194555,-92.2722797,Simple - Harsh - No Fishery,n/a,n/a,n/a
2656900,Kent Lake,Burnett,31,12.5,16,4.9,45.757843,-92.246114,Simple - Warm - Dark,n/a,n/a,n/a
2675100,Kreiner Lake,Burnett,65,26.3,2,0.6,45.9693135,-92.4224227,Simple - Harsh - No Fishery,n/a,n/a,n/a
2474100,Lang Lake,Burnett,85,34.4,4,1.2,45.9540601,-92.2242383,Simple - Warm - Dark,n/a,n/a,n/a
2673000,"Lang Lake, North",Burnett,16,6.5,10,3.0,45.9818044,-92.2164898,Simple - Warm - Clear,no,no,n/a
2474300,Larson Lake,Burnett,31,12.5,12,3.7,45.7902561,-92.3698136,Simple - Warm - Dark,n/a,n/a,n/a
2675900,Lily Lake T39N R15W S06,Burnett,15,6.1,44,13.4,45.9012605,-92.2725914,Simple - Warm - Dark,n/a,n/a,n/a
2475300,Lily Lake T41N R14W S34,Burnett,187,75.7,21,6.4,45.9870989,-92.0990431,Simple - Warm - Clear,no,no,n/a
2475400,Lind Lake,Burnett,42,17.0,19,5.8,45.75027,-92.4353392,Simple - Warm - Dark,n/a,n/a,n/a
2706700,Lindy Lake,Burnett,56,22.7,14,4.3,45.954071,-92.0478187,Simple - Warm - Dark,n/a,n/a,n/a
2678100,Lipsett Lake (Lipsie),Burnett,393,159.0,24,7.3,45.8725354,-92.0492316,Complex - Warm - Clear,no,yes,n/a
2475600,Little Bass Lake T38N R15W S24,Burnett,10,4.0,12,3.7,45.7548007,-92.1742429,Simple - Warm - Dark,n/a,n/a,n/a
2659300,Little Bass Lake T38N R15W S36,Burnett,11,4.5,30,9.1,45.7378308,-92.161727,Simple - Cool - Clear,n/a,n/a,n/a
2475800,Little Bass Lake T40N R16W S22,Burnett,34,13.8,12,3.7,45.9369731,-92.3294244,Simple - Warm - Dark,n/a,n/a,n/a
2476000,Little Bear Lake,Burnett,128,51.8,55,16.8,45.9894385,-92.1606264,Simple - Two Story,n/a,n/a,Simple - Cool - Clear
2476200,Little Deer Lake,Burnett,14,5.7,4,1.2,45.7311839,-92.355576,Simple - Harsh - No Fishery,n/a,n/a,n/a
2476300,Little Dunham Lake,Burnett,11,4.5,33,10.1,45.7446573,-92.468883,Simple - Warm - Dark,n/a,n/a,n/a
2638200,Little Holmes Lake,Burnett,23,9.3,8,2.4,45.6565675,-92.6583821,Simple - Warm - Dark,n/a,n/a,n/a
2476900,Little Mallard Lake,Burnett,24,9.7,6,1.8,45.8904849,-92.1740555,Simple - Harsh - No Fishery,n/a,n/a,n/a
2477000,Little McGraw Lake,Burnett,55,22.3,12,3.7,46.1161885,-92.1802354,Simple - Warm - Dark,n/a,n/a,n/a
2477600,Little Round Lake,Burnett,13,5.3,40,12.2,46.0128542,-92.225669,Simple - Cool - Clear,n/a,n/a,n/a
2650900,Little Wood Lake,Burnett,207,83.8,23,7.0,45.7471513,-92.537221,Simple - Warm - Clear,no,yes,n/a
2674800,Little Yellow Lake,Burnett,348,140.8,21,6.4,45.9292224,-92.4307773,Complex - Two Story,n/a,n/a,Complex - Warm - Dark
2675400,Lone Star Lake (Saunders),Burnett,23,9.3,40,12.2,45.9319038,-92.3653453,Simple - Warm - Dark,n/a,n/a,n/a
2656400,Long Lake T38N R16W S16,Burnett,318,128.7,13,4.0,45.7658313,-92.3612205,Simple - Warm - Clear,no,no,n/a
2674100,Long Lake T41N R14W S28,Burnett,251,101.6,41,12.5,45.990729,-92.1302808,Complex - Warm - Clear,no,no,n/a
2478300,Long Lake T41N R16W S33,Burnett,49,19.8,14,4.3,45.9834796,-92.363535,Simple - Warm - Dark,n/a,n/a,n/a
2673500,Loon Lake T40N R15W S01,Burnett,228,92.3,28,8.5,45.9758258,-92.1706795,Simple - Warm - Clear,no,no,n/a
2671200,Loon Lake T41N R15W S36,Burnett,89,36.0,10,3.0,45.9966183,-92.2985809,Simple - Riverine,n/a,n/a,n/a
2707000,Lost Lake T39N R14W S02,Burnett,21,8.5,3,0.9,45.8988267,-92.0599648,Simple - Harsh - No Fishery,n/a,n/a,n/a
2479400,Lost Lake T39N R15W S27,Burnett,34,13.8,2,0.6,45.8373528,-92.2042689,Simple - Harsh - No Fishery,n/a,n/a,n/a
2479700,Lost Lake T41N R14W S26,Burnett,248,100.4,4,1.2,46.007324,-92.078456,Simple - Harsh - Has Fishery,n/a,n/a,n/a
2671000,Love Lake,Burnett,253,102.4,65,19.8,45.9733131,-92.32894,Simple - Two Story,no,no,Simple - Warm - Clear
2480100,Lucerne Lake,Burnett,40,16.2,21,6.4,46.0010209,-92.1103236,Simple - Harsh - Has Fishery,n/a,n/a,n/a
2480800,Mallard Lake,Burnett,113,45.7,35,10.7,45.8995335,-92.1777362,Simple - Warm - Clear,no,no,n/a
2655800,Mallard Slough,Burnett,25,10.1,4,1.2,45.8192377,-92.2867866,Simple - Harsh - No Fishery,n/a,n/a,n/a
2481400,McElroy Lake,Burnett,7,2.8,16,4.9,46.0520644,-92.1445648,Simple - Harsh - Has Fishery,n/a,n/a,n/a
2706500,"McKenzie Lake, Middle*",Burnett,530,214.5,45,13.7,45.943157,-92.0409695,Complex - Two Story,n/a,n/a,Complex - Warm - Clear
2481900,Meeker Run Lake,Burnett,18,7.3,1,0.3,46.0085885,-92.1038565,Simple - Harsh - No Fishery,n/a,n/a,n/a
2646500,Memory Lake,Burnett,10,4.0,6,1.8,45.7799971,-92.6862843,Simple - Riverine,n/a,n/a,n/a
2670600,Minerva Lake,Burnett,222,89.8,26,7.9,45.9880533,-92.3262682,Simple - Warm - Clear,no,no,n/a
2482700,Mingo Lake,Burnett,16,6.5,9,2.7,45.9459636,-92.3413577,Simple - Warm - Dark,n/a,n/a,n/a
2482800,Miniature Lake,Burnett,38,15.4,69,21.0,46.0155486,-92.1099582,Simple - Two Story,n/a,n/a,Simple - Warm - Clear
2482900,Minnow Lake,Burnett,57,23.1,50,15.2,45.9705515,-92.3091955,Simple - Warm - Clear,yes,no,n/a
2483200,Mollete Lake,Burnett,25,10.1,4,1.2,45.9035347,-92.2107929,Simple - Harsh - No Fishery,n/a,n/a,n/a
2483300,Money Lake,Burnett,46,18.6,3,0.9,45.8665173,-92.2952446,Simple - Harsh - No Fishery,n/a,n/a,n/a
2648200,Monson Lake T39N R18W S04,Burnett,208,84.2,,,45.8955646,-92.6004978,Simple - Harsh - No Fishery,n/a,n/a,n/a
2649500,Mud Hen Lake,Burnett,563,227.8,66,20.1,45.7771216,-92.481502,Simple - Warm - Clear,no,no,n/a
2484400,Mud Lake T40N R16W S26,Burnett,163,66.0,3,0.9,45.9199861,-92.317837,Simple - Harsh - Has Fishery,no,yes,n/a
2672300,Mud Lake T41N R15W S34,Burnett,26,10.5,7,2.1,45.9974876,-92.2212227,Simple - Warm - Dark,n/a,n/a,n/a
2485100,Muskrat Lake,Burnett,9,3.6,14,4.3,45.741937,-92.5416785,Simple - Harsh - Has Fishery,n/a,n/a,n/a
2485200,Myre Lake,Burnett,128,51.8,27,8.2,45.9509213,-92.2372495,Simple - Warm - Dark,n/a,n/a,n/a
2485300,Myrick Lake,Burnett,19,7.7,12,3.7,46.022509,-92.182362,Simple - Warm - Dark,n/a,n/a,n/a
2485400,Mystery Lake,Burnett,26,10.5,51,15.5,45.9603704,-92.0541844,Simple - Cool - Clear,yes,no,n/a
2486100,Nicaboyne Lake (Nicahoyne),Burnett,291,117.8,34,10.4,45.9864663,-92.0802152,Simple - Warm - Clear,no,no,n/a
2486300,No Mans Lake*,Burnett,70,28.3,23,7.0,46.119627,-92.0499668,Simple - Warm - Clear,no,no,n/a
2676100,North Lake,Burnett,33,13.4,22,6.7,45.9136385,-92.2812509,Simple - Warm - Dark,n/a,n/a,n/a
2486600,Oak Lake,Burnett,227,91.9,19,5.8,45.9315041,-92.1285879,Simple - Warm - Clear,no,no,n/a
2487400,Our Lake,Burnett,9,3.6,12,3.7,45.9743863,-92.3041788,Simple - Warm - Dark,n/a,n/a,n/a
2307600,Owl Lake,Burnett,127,51.4,27,8.2,46.2819535,-89.9734361,Simple - Cool - Clear,no,no,n/a
2659700,Peacock Lake,Burnett,14,5.7,13,4.0,45.6941377,-92.1195329,Simple - Harsh - Has Fishery,n/a,n/a,n/a
2488500,Perch Lake,Burnett,16,6.5,27,8.2,45.9036676,-92.0607517,Simple - Warm - Dark,n/a,n/a,n/a
2650100,Peterson Lake,Burnett,24,9.7,11,3.4,45.722457,-92.5882098,Simple - Warm - Dark,n/a,n/a,n/a
2676000,Peterson Lake (Big),Burnett,94,38.0,16,4.9,45.9050564,-92.2789835,Simple - Warm - Clear,no,no,n/a
2644100,Phantom Flowage T39N R19W S36,Burnett,1480,598.9,,,45.8235715,-92.6485325,Simple - Harsh - No Fishery,n/a,n/a,n/a
2488800,Phernetton Lake,Burnett,61,24.7,5,1.5,45.9422541,-92.2407653,Simple - Warm - Dark,n/a,n/a,n/a
2639100,Pickle Lake,Burnett,20,8.1,20,6.1,45.6622741,-92.6049723,Simple - Warm - Dark,n/a,n/a,n/a
2489500,Pike Lake,Burnett,77,31.2,15,4.6,45.8309451,-92.2905129,Simple - Warm - Dark,n/a,n/a,n/a
2490100,Pine Lake T37N R18W S22,Burnett,51,20.6,46,14.0,45.6794753,-92.5707811,Simple - Warm - Dark,n/a,n/a,n/a
2490200,Pine Lake T40N R15W S25,Burnett,89,36.0,19,5.8,45.9277543,-92.1648486,Simple - Warm - Dark,n/a,n/a,n/a
2490600,Places Lake,Burnett,13,5.3,13,4.0,45.6867468,-92.1008681,Simple - Harsh - No Fishery,n/a,n/a,n/a
2490900,Point Lake,Burnett,144,58.3,7,2.1,45.9213019,-92.2417123,Simple - Warm - Dark,n/a,n/a,n/a
2657200,Pokegama Lake,Burnett,160,64.7,28,8.5,45.7814787,-92.1994125,Simple - Warm - Clear,no,no,n/a
2491100,Poquettes Lake (Little Long),Burnett,97,39.3,23,7.0,45.8096492,-92.0712786,Simple - Warm - Clear,no,no,n/a
2491200,Pratt Lake,Burnett,21,8.5,4,1.2,45.8981615,-92.1912407,Simple - Harsh - No Fishery,n/a,n/a,n/a
2491500,Prinel Lake (Frog),Burnett,64,25.9,12,3.7,46.0311018,-92.0853426,Simple - Cool - Dark,no,no,n/a
2491600,Put Lake,Burnett,19,7.7,3,0.9,45.7661345,-92.3169818,Simple - Harsh - No Fishery,n/a,n/a,n/a
2491700,Rahn Lake,Burnett,4,1.6,3,0.9,45.9370383,-92.4641463,Simple - Harsh - No Fishery,n/a,n/a,n/a
2650200,Rice Lake T37N R18W S10,Burnett,83,33.6,13,4.0,45.7049533,-92.5734161,Simple - Warm - Dark,n/a,n/a,n/a
2640300,Rice Lake T37N R18W S25,Burnett,50,20.2,5,1.5,45.6547504,-92.5353812,Simple - Warm - Dark,n/a,n/a,n/a
2677900,Rice Lake T39N R14W S10,Burnett,326,131.9,10,3.0,45.8542619,-92.0790244,Complex - Riverine,n/a,n/a,n/a
2492400,Richart Lake,Burnett,17,6.9,3,0.9,46.1128454,-92.0588467,Simple - Harsh - No Fishery,n/a,n/a,n/a
2671500,Robie Lake,Burnett,31,12.5,14,4.3,46.0176595,-92.2953498,Simple - Warm - Dark,n/a,n/a,n/a
2493000,Rohr Lake,Burnett,12,4.9,5,1.5,45.8044583,-92.246425,Simple - Harsh - Has Fishery,n/a,n/a,n/a
2493100,Rooney Lake,Burnett,322,130.3,30,9.1,45.9609485,-92.074472,Complex - Warm - Clear,no,no,n/a
2640100,Round Lake T37N R18W S27,Burnett,204,82.6,27,8.2,45.6617185,-92.5789469,Complex - Warm - Dark,no,no,n/a
2493600,Round Lake T39N R15W S03,Burnett,27,10.9,5,1.5,45.8948519,-92.2078781,Simple - Harsh - No Fishery,n/a,n/a,n/a
2493700,Round Lake T41N R16W S33,Burnett,56,22.7,11,3.4,45.9850969,-92.371146,Simple - Warm - Clear,no,no,n/a
2494700,Saginaw Lake,Burnett,13,5.3,19,5.8,46.0624574,-92.1035106,Simple - Cool - Clear,yes,no,n/a
2664900,Sand Lake T38N R16W S22,Burnett,81,32.8,42,12.8,45.7598372,-92.3401743,Simple - Warm - Clear,no,no,n/a
2495100,Sand Lake T40N R15W S25,Burnett,962,389.3,73,22.3,45.9181793,-92.1732699,Complex - Warm - Clear,no,no,n/a
2495500,Sanks Lake,Burnett,39,15.8,4,1.2,45.9990896,-92.1621157,Simple - Harsh - No Fishery,n/a,n/a,n/a
1880600,Shallow Lake* T37N R13W S31,Burnett,92,37.2,30,9.1,45.6405866,-92.0290559,Simple - Warm - Clear,yes,no,n/a
2673800,Shoal Lake,Burnett,247,100.0,5,1.5,45.9576116,-92.1887584,Simple - Harsh - Has Fishery,n/a,n/a,n/a
2496800,Silver Lake T38N R16W S22,Burnett,64,25.9,67,20.4,45.7684444,-92.3414445,Simple - Warm - Dark,n/a,n/a,n/a
2651500,Silver Lake T38N R18W S36,Burnett,33,13.4,35,10.7,45.7344771,-92.538742,Simple - Warm - Dark,n/a,n/a,n/a
2497900,Smith Lake,Burnett,26,10.5,22,6.7,45.8934217,-92.066266,Simple - Harsh - Has Fishery,n/a,n/a,n/a
2658400,Spencer Lake (Spence),Burnett,188,76.1,19,5.8,45.7378993,-92.1849463,Simple - Warm - Dark,n/a,n/a,n/a
2650300,Spirit Lake,Burnett,593,240.0,27,8.2,45.713635,-92.5513945,Simple - Warm - Dark,no,no,n/a
2639800,Spook Lake,Burnett,18,7.3,40,12.2,45.6969295,-92.5957756,Simple - Warm - Dark,n/a,n/a,n/a
2677400,Spring Brook Springs,Burnett,5,2.0,11,3.4,45.8250834,-92.1617283,Simple - Trout Pond,n/a,n/a,n/a
2664100,Spring Lake (Clam R Springs),Burnett,9,3.6,7,2.1,45.7051504,-92.0323593,Simple - Trout Pond,n/a,n/a,n/a
2499200,Staples Lake,Burnett,85,34.4,42,12.8,46.0460432,-92.2746053,Simple - Warm - Dark,n/a,n/a,n/a
2499500,Stone Lake,Burnett,34,13.8,11,3.4,46.010079,-92.2590787,Simple - Warm - Clear,no,no,n/a
2499700,Stulen Lake,Burnett,20,8.1,14,4.3,46.0585977,-92.1159269,Simple - Warm - Dark,n/a,n/a,n/a
2500000,Sunfish Lake,Burnett,9,3.6,41,12.5,45.8702911,-92.2789252,Simple - Warm - Dark,n/a,n/a,n/a
2500300,Swamp Lake T38N R16W S30,Burnett,39,15.8,3,0.9,45.7521127,-92.4016703,Simple - Harsh - No Fishery,n/a,n/a,n/a
2500400,Swamp Lake T39N R15W S11,Burnett,21,8.5,5,1.5,45.8857759,-92.186581,Simple - Harsh - No Fishery,n/a,n/a,n/a
2671700,Tabor Lake (Loon),Burnett,157,63.5,28,8.5,46.0283723,-92.2818884,Simple - Warm - Dark,n/a,n/a,n/a
2656100,Tamarack Lake,Burnett,13,5.3,3,0.9,45.8144629,-92.299212,Simple - Harsh - No Fishery,n/a,n/a,n/a
2500800,Tanda Lake,Burnett,39,15.8,4,1.2,45.9466024,-92.2731037,Simple - Harsh - Has Fishery,n/a,n/a,n/a
2655900,Taylor Lake,Burnett,80,32.4,10,3.0,45.811859,-92.2897819,Simple - Warm - Dark,n/a,n/a,n/a
2501100,Temple Lake,Burnett,18,7.3,6,1.8,45.8618685,-92.1587799,Simple - Harsh - No Fishery,n/a,n/a,n/a
2501200,Thatcher Lake,Burnett,23,9.3,41,12.5,46.0350771,-92.167864,Simple - Warm - Dark,n/a,n/a,n/a
2473700,Thirty-Two Lake,Burnett,22,8.9,17,5.2,45.6479934,-92.1128366,Simple - Warm - Dark,n/a,n/a,n/a
2676300,Tomoe Lake,Burnett,67,27.1,6,1.8,45.9103022,-92.2689546,Simple - Harsh - Has Fishery,n/a,n/a,n/a
2638700,"Trade Lake, Big(Little Trade)",Burnett,434,175.6,39,11.9,45.6704084,-92.6169567,Complex - Warm - Dark,no,no,n/a
2502600,Tucker Lake,Burnett,47,19.0,2,0.6,45.839436,-92.2678563,Simple - Harsh - No Fishery,n/a,n/a,n/a
2672500,Twenty-Six Lake,Burnett,230,93.1,45,13.7,46.0069099,-92.2181908,Complex - Two Story,no,no,Complex - Warm - Clear
2672700,Twenty-Six Lake Springs,Burnett,3,1.2,8,2.4,46.0053989,-92.2055497,Simple - Harsh - No Fishery,n/a,n/a,n/a
2480000,"Twin Lake, Lower",Burnett,123,49.8,9,2.7,45.9085088,-92.1447802,Simple - Warm - Dark,n/a,n/a,n/a
2494300,"Twin Lake, South",Burnett,19,7.7,25,7.6,45.769089,-92.2304988,Simple - Warm - Dark,n/a,n/a,n/a
2598400,"Twin Lake, Upper",Burnett,163,66.0,18,5.5,45.9206069,-92.135354,Simple - Harsh - Has Fishery,n/a,n/a,n/a
2598600,Viola Lake,Burnett,285,115.3,34,10.4,45.8178077,-92.2513359,Simple - Warm - Clear,no,no,n/a
2599500,Ward Lake,Burnett,18,7.3,21,6.4,45.757013,-92.4184868,Simple - Warm - Dark,n/a,n/a,n/a
2677200,Warner Lake,Burnett,176,71.2,75,22.9,45.7984296,-92.2220159,Simple - Warm - Clear,no,no,n/a
2705400,Webb Lake (Web),Burnett,761,308.0,31,9.4,46.0307564,-92.1349738,Simple - Warm - Dark,n/a,n/a,n/a
2600700,Wilson Lake,Burnett,10,4.0,13,4.0,45.8054771,-92.4948402,Simple - Harsh - Has Fishery,n/a,n/a,n/a
2649800,Wood Lake,Burnett,521,210.8,35,10.7,45.7411461,-92.58199,Simple - Two Story,no,yes,Simple - Warm - Dark
2675200,Yellow Lake,Burnett,2287,925.5,31,9.4,45.9190532,-92.3985698,Complex - Two Story,n/a,n/a,Complex - Warm - Dark
77300,Becker Lake,Calumet,32,12.9,53,16.2,44.1308869,-88.0477184,Simple - Warm - Dark,no,no,n/a
77600,Boot Lake*,Calumet,11,4.5,16,4.9,44.1464614,-88.045048,Simple - Harsh - Has Fishery,no,no,n/a
81200,Chilton Millpond,Calumet,10,4.0,7,2.1,44.0257651,-88.1669064,Simple - Riverine,n/a,n/a,n/a
77200,Grass Lake,Calumet,15,6.1,,,44.1492705,-88.0612302,Simple - Harsh - No Fishery,n/a,n/a,n/a
79800,Hayton Pond,Calumet,36,14.6,5,1.5,44.0253649,-88.122687,Simple - Riverine,n/a,n/a,n/a
68600,Round Lake,Calumet,11,4.5,50,15.2,44.1527869,-88.0491104,Simple - Warm - Dark,n/a,n/a,n/a
80500,Schildhauer Pond,Calumet,2,0.8,5,1.5,43.952518,-88.0649853,Simple - Trout Pond,n/a,n/a,n/a
1831600,Ace In The Hole Lake,Chippewa,6,2.4,45,13.7,45.2308231,-91.4097,Simple - Warm - Dark,n/a,n/a,n/a
2092500,Axhandle Lake,Chippewa,84,34.0,73,22.3,45.2778588,-91.4831226,Complex - Warm - Clear,no,no,n/a
2179400,Barr Lake,Chippewa,6,2.4,20,6.1,45.1741216,-91.3134252,Simple - Warm - Dark,n/a,n/a,n/a
2347400,Bass Lake 31N R08W S01-09,Chippewa,9,3.6,23,7.0,45.1988337,-91.3124575,Simple - Warm - Dark,n/a,n/a,n/a
2347200,Bass Lake T31N R08W S01-05,Chippewa,3,1.2,27,8.2,45.2027,-91.307692,Simple - Warm - Dark,n/a,n/a,n/a
1833600,Bass Lake T31N R08W S02-03,Chippewa,12,4.9,26,7.9,45.1996205,-91.316922,Simple - Warm - Dark,n/a,n/a,n/a
1833500,Bass Lake T31N R08W S02-04,Chippewa,12,4.9,41,12.5,45.2009211,-91.3210549,Simple - Warm - Dark,n/a,n/a,n/a
2347100,Bass Lake T31N R08W S36,Chippewa,6,2.4,21,6.4,45.206594,-91.3098625,Simple - Warm - Dark,n/a,n/a,n/a
2348000,Bass Lake T32N R07W S30-13,Chippewa,4,1.6,27,8.2,45.2228447,-91.2786247,Simple - Harsh - Has Fishery,n/a,n/a,n/a
1832700,Bass Lake T32N R09W S15,Chippewa,39,15.8,23,7.0,45.2629111,-91.4717583,Simple - Warm - Dark,n/a,n/a,n/a
2347900,Bass LakeT32N R07W S30-15,Chippewa,6,2.4,40,12.2,45.220661,-91.2817638,Simple - Harsh - Has Fishery,n/a,n/a,n/a
1834700,Beaver Lake (Big Beaver),Chippewa,15,6.1,44,13.4,45.2249599,-91.3638018,Simple - Warm - Dark,n/a,n/a,n/a
2179500,Beaver Lake T31N R08W S13,Chippewa,5,2.0,44,13.4,45.1761133,-91.309865,Simple - Warm - Dark,n/a,n/a,n/a
1834400,Beaver Lake T31N R08W S16,Chippewa,15,6.1,15,4.6,45.1663864,-91.3701272,Simple - Warm - Dark,n/a,n/a,n/a
2170300,Big Buck Lake,Chippewa,17,6.9,45,13.7,45.1698039,-91.3459208,Simple - Warm - Dark,n/a,n/a,n/a
1835400,Big Twin Lake,Chippewa,4,1.6,40,12.2,45.2336008,-91.2745279,Simple - Warm - Dark,n/a,n/a,n/a
2185700,Birch Creek Flowage No. 2,Chippewa,5,2.0,8,2.4,45.2411503,-91.2238831,Simple - Warm - Dark,n/a,n/a,n/a
2179600,Black Lake,Chippewa,3,1.2,34,10.4,45.1756667,-91.3073025,Simple - Warm - Dark,n/a,n/a,n/a
2178400,Bob Lake,Chippewa,97,39.3,68,20.7,45.1640238,-91.3207733,Simple - Warm - Clear,no,no,n/a
1836300,Bog Lake,Chippewa,6,2.4,7,2.1,45.2720588,-91.3492676,Simple - Warm - Dark,n/a,n/a,n/a
2345600,Boiler Lake,Chippewa,4,1.6,12,3.7,45.222109,-91.2621333,Simple - Harsh - No Fishery,n/a,n/a,n/a
1836600,Boot Lake,Chippewa,27,10.9,14,4.3,45.0962057,-91.329485,Simple - Harsh - Has Fishery,n/a,n/a,n/a
2346000,Bradley Lake,Chippewa,11,4.5,38,11.6,45.2655514,-91.3481977,Simple - Cool - Clear,n/a,n/a,n/a
1838200,Burnt Wagon Lake,Chippewa,15,6.1,12,3.7,45.1817445,-91.3441434,Simple - Harsh - No Fishery,n/a,n/a,n/a
2155800,Cadott Flowage,Chippewa,20,8.1,10,3.0,44.95362,-91.14925,Simple - Riverine,n/a,n/a,n/a
2351100,Calkins Lake,Chippewa,43,17.4,20,6.1,45.2682769,-91.4419358,Simple - Warm - Dark,n/a,n/a,n/a
1869000,"Calkins Lake, North",Chippewa,14,5.7,17,5.2,45.2324057,-91.3828353,Simple - Warm - Dark,n/a,n/a,n/a
2044300,"Calkins Lake, West",Chippewa,8,3.2,13,4.0,45.2299161,-91.3792981,Simple - Warm - Dark,n/a,n/a,n/a
2186200,Cameron Lake (La Rose),Chippewa,14,5.7,13,4.0,45.260914,-91.2270977,Simple - Warm - Dark,n/a,n/a,n/a
1838900,Camp Lake,Chippewa,6,2.4,18,5.5,45.2909961,-91.3312445,Simple - Harsh - Has Fishery,n/a,n/a,n/a
1839900,Cather Lake,Chippewa,10,4.0,21,6.4,45.2789129,-91.4708313,Simple - Warm - Dark,n/a,n/a,n/a
2352700,Cedar Lake,Chippewa,5,2.0,18,5.5,45.2703151,-91.3687337,Simple - Warm - Dark,n/a,n/a,n/a
2147200,Chapman Lake,Chippewa,34,13.8,9,2.7,44.9648417,-90.9436603,Simple - Riverine,n/a,n/a,n/a
1840500,Chick Lake T32N R08W S20,Chippewa,8,3.2,10,3.0,45.234851,-91.3818879,Simple - Harsh - No Fishery,n/a,n/a,n/a
1840600,Chick Lake T32N R09W S03,Chippewa,10,4.0,8,2.4,45.2793691,-91.4642471,Simple - Warm - Dark,n/a,n/a,n/a
2152600,Chippewa Falls Flowage,Chippewa,282,114.1,29,8.8,44.93156,-91.39104,Complex - Riverine,no,no,n/a
1841100,Clear Lake T30N R08W S02,Chippewa,9,3.6,5,1.5,45.1072885,-91.3120719,Simple - Harsh - Has Fishery,n/a,n/a,n/a
1841200,Clear Lake T31N R08W S23,Chippewa,19,7.7,11,3.4,45.1544386,-91.323988,Simple - Harsh - Has Fishery,n/a,n/a,n/a
2152100,Como Lake (Bloomer Mill Pond),Chippewa,98,39.7,6,1.8,45.1076311,-91.5048337,Simple - Riverine,n/a,n/a,n/a
2181400,Cornell Flowage,Chippewa,836,338.3,54,16.5,45.1710016,-91.1667709,Complex - Riverine,n/a,n/a,n/a
2171000,Cornell Lake,Chippewa,194,78.5,39,11.9,45.1176635,-91.3379472,Complex - Warm - Clear,no,no,n/a
1843000,Dam Lake,Chippewa,4,1.6,17,5.2,45.2201456,-91.3744772,Simple - Warm - Dark,n/a,n/a,n/a
2351800,Dark Lake T32N R08W S19,Chippewa,21,8.5,65,19.8,45.2361396,-91.4137903,Complex - Warm - Dark,n/a,n/a,n/a
2092700,Dark Lake T32N R09W S10,Chippewa,13,5.3,62,18.9,45.273784,-91.4763645,Simple - Two Story,n/a,n/a,Simple - Cool - Clear
2347500,Deer Lake,Chippewa,5,2.0,20,6.1,45.2058705,-91.3022222,Simple - Warm - Dark,n/a,n/a,n/a
1845300,Dog Island Lake,Chippewa,5,2.0,9,2.7,45.207927,-91.3307797,Simple - Harsh - No Fishery,n/a,n/a,n/a
1845700,Dorothy Lake,Chippewa,5,2.0,38,11.6,45.2246002,-91.3018387,Simple - Warm - Dark,n/a,n/a,n/a
1846100,Dumke Lake,Chippewa,11,4.5,16,4.9,45.2189382,-91.3566752,Simple - Harsh - Has Fishery,n/a,n/a,n/a
1846600,Eagle Lake,Chippewa,15,6.1,15,4.6,45.1750533,-91.3697504,Simple - Harsh - Has Fishery,n/a,n/a,n/a
1847600,Evans Lake,Chippewa,12,4.9,8,2.4,45.1711843,-91.3529391,Simple - Harsh - Has Fishery,n/a,n/a,n/a
2179700,Evergreen Lake,Chippewa,3,1.2,29,8.8,45.1733147,-91.3056432,Simple - Warm - Dark,n/a,n/a,n/a
2175700,Finley Lake,Chippewa,56,22.7,27,8.2,45.100916,-91.2919189,Simple - Warm - Dark,n/a,n/a,n/a
2176200,Firth Lake,Chippewa,51,20.6,18,5.5,45.2024192,-91.2132432,Simple - Cool - Dark,yes,no,n/a
1849200,Fishpole Lake,Chippewa,20,8.1,12,3.7,45.1949108,-91.3385703,Simple - Warm - Dark,n/a,n/a,n/a
2346100,Foster Lake,Chippewa,26,10.5,21,6.4,45.2540841,-91.3299848,Simple - Warm - Dark,n/a,n/a,n/a
1849800,Fur Farm Lake,Chippewa,8,3.2,18,5.5,45.2299933,-91.3756284,Simple - Warm - Dark,n/a,n/a,n/a
2151000,Glen Loch Flowage,Chippewa,39,15.8,17,5.2,44.9619899,-91.4000614,Simple - Riverine,n/a,n/a,n/a
2351000,Granger Lake,Chippewa,10,4.0,31,9.4,45.2723475,-91.4419011,Simple - Warm - Dark,n/a,n/a,n/a
2150200,Hallie Lake,Chippewa,79,32.0,13,4.0,44.8768994,-91.4439464,Simple - Warm - Clear,no,no,n/a
1852700,Hartnan Lake,Chippewa,7,2.8,7,2.1,45.1027531,-91.3387425,Simple - Harsh - Has Fishery,n/a,n/a,n/a
1852800,Harwood Lake No. 1,Chippewa,9,3.6,7,2.1,45.220054,-91.3319016,Simple - Harsh - No Fishery,n/a,n/a,n/a
1852900,Harwood Lake No. 2,Chippewa,14,5.7,9,2.7,45.2218926,-91.3283374,Simple - Warm - Dark,n/a,n/a,n/a
1853000,Harwood Lake No. 3,Chippewa,1,0.4,11,3.4,45.22473,-91.32396,Simple - Harsh - No Fishery,n/a,n/a,n/a
1853100,Harwood Lake No. 4,Chippewa,1,0.4,4,1.2,45.2257836,-91.3243491,Simple - Harsh - No Fishery,n/a,n/a,n/a
1853300,Hay Lake,Chippewa,7,2.8,14,4.3,45.1902488,-91.3297288,Simple - Harsh - No Fishery,n/a,n/a,n/a
2178900,Hay Meadow Flowage No. 1,Chippewa,24,9.7,40,12.2,45.1742597,-91.3237918,Simple - Warm - Dark,n/a,n/a,n/a
2180100,Hay Meadow Flowage No. 2,Chippewa,40,16.2,9,2.7,45.1808269,-91.3201557,Simple - Warm - Dark,n/a,n/a,n/a
2180700,Hay Meadow Flowage No. 3,Chippewa,19,7.7,4,1.2,45.1835616,-91.3210831,Simple - Harsh - No Fishery,n/a,n/a,n/a
2180900,Hay Meadow Flowage No. 4,Chippewa,24,9.7,22,6.7,45.1869667,-91.3227997,Simple - Warm - Dark,n/a,n/a,n/a
1853400,Hemlock Lake,Chippewa,28,11.3,17,5.2,45.1685625,-91.3664337,Simple - Warm - Dark,n/a,n/a,n/a
2352500,Henneman Lake,Chippewa,64,25.9,60,18.3,45.2566134,-91.3713298,Simple - Two Story,n/a,n/a,Simple - Warm - Clear
2173300,Highland Lake,Chippewa,10,4.0,16,4.9,45.2094875,-91.3573494,Simple - Warm - Dark,n/a,n/a,n/a
1853600,Himple Lake,Chippewa,5,2.0,33,10.1,45.1321699,-91.320712,Simple - Warm - Dark,n/a,n/a,n/a
1853700,Hodge Lake (L Harriet),Chippewa,19,7.7,28,8.5,45.230394,-91.4033342,Simple - Warm - Dark,n/a,n/a,n/a
2186500,Horseshoe Flowage,Chippewa,6,2.4,8,2.4,45.2162324,-91.2231624,Simple - Harsh - No Fishery,n/a,n/a,n/a
1854200,Horseshoe Lake T31N R08W S10,Chippewa,17,6.9,16,4.9,45.1761797,-91.3431204,Simple - Harsh - Has Fishery,n/a,n/a,n/a
1854300,Horseshoe Lake T32N R08W S33,Chippewa,24,9.7,23,7.0,45.2174772,-91.361698,Simple - Harsh - Has Fishery,n/a,n/a,n/a
1854400,Horseshoe Lake T32N R09W S25,Chippewa,12,4.9,7,2.1,45.2246108,-91.4287679,Simple - Harsh - Has Fishery,n/a,n/a,n/a
1855100,Howe Lake,Chippewa,68,27.5,39,11.9,45.0885931,-91.3146638,Simple - Warm - Clear,no,no,n/a
1855700,Jacks Lake,Chippewa,14,5.7,56,17.1,45.2819005,-91.3971837,Simple - Warm - Dark,n/a,n/a,n/a
1856300,Jeanstow Lake,Chippewa,3,1.2,26,7.9,45.219147,-91.4258579,Simple - Warm - Dark,n/a,n/a,n/a
2177700,Jerome Lake,Chippewa,9,3.6,26,7.9,45.2324447,-91.2427051,Simple - Warm - Dark,n/a,n/a,n/a
2168800,Jim Lake,Chippewa,58,23.5,20,6.1,45.0731562,-91.3376715,Simple - Warm - Dark,n/a,n/a,n/a
1857800,Kettle Lake,Chippewa,2,0.8,9,2.7,45.2011025,-91.3364384,Simple - Harsh - No Fishery,n/a,n/a,n/a
1858300,Knickerbocker Lake,Chippewa,14,5.7,24,7.3,45.2226893,-91.3756036,Simple - Warm - Dark,n/a,n/a,n/a
2352000,Larrabee Lake,Chippewa,50,20.2,31,9.4,45.2441341,-91.4316951,Simple - Warm - Dark,n/a,n/a,n/a
1860100,Leo Joerg Lake,Chippewa,12,4.9,16,4.9,45.2752979,-91.384972,Simple - Warm - Dark,n/a,n/a,n/a
1860500,Little Bass Lake,Chippewa,12,4.9,7,2.1,45.2646136,-91.4774593,Simple - Warm - Dark,n/a,n/a,n/a
1860800,Little Beaver Lake,Chippewa,6,2.4,49,14.9,45.2231682,-91.3699389,Simple - Warm - Dark,n/a,n/a,n/a
2178500,Little Bob Lake,Chippewa,2,0.8,18,5.5,45.165021,-91.326922,Simple - Warm - Dark,n/a,n/a,n/a
2170200,Little Buck Lake,Chippewa,4,1.6,13,4.0,45.1652046,-91.3438889,Simple - Warm - Dark,n/a,n/a,n/a
2092400,Little Pine Lake,Chippewa,10,4.0,50,15.2,45.2840511,-91.4824595,Simple - Warm - Dark,n/a,n/a,n/a
2348800,Little Plummer Lake,Chippewa,10,4.0,25,7.6,45.2148982,-91.3541985,Simple - Warm - Dark,n/a,n/a,n/a
1862600,Little Twin Lake,Chippewa,3,1.2,25,7.6,45.2361772,-91.2753305,Simple - Warm - Dark,n/a,n/a,n/a
1862700,Logger Lake,Chippewa,19,7.7,19,5.8,45.2393025,-91.3808327,Simple - Warm - Dark,n/a,n/a,n/a
1862800,Long Lake T31N R07W S05,Chippewa,22,8.9,11,3.4,45.1944298,-91.2730127,Simple - Harsh - Has Fishery,n/a,n/a,n/a
2170800,Long Lake T31N R08W S26,Chippewa,6,2.4,23,7.0,45.1345234,-91.3379072,Simple - Warm - Dark,n/a,n/a,n/a
2351400,Long Lake T32N R08W S08,Chippewa,1052,425.7,101,30.8,45.2519897,-91.403812,Complex - Two Story,n/a,n/a,Complex - Warm - Clear
1863000,Loon Lake,Chippewa,125,50.6,5,1.5,45.2473941,-91.4670155,Simple - Harsh - Has Fishery,n/a,n/a,n/a
1863300,Lost Lake,Chippewa,3,1.2,34,10.4,45.2865357,-91.4101019,Simple - Warm - Dark,n/a,n/a,n/a
2173400,Lowland Lake,Chippewa,11,4.5,24,7.3,45.2071267,-91.361939,Simple - Warm - Dark,n/a,n/a,n/a
2171200,Marsh-Miller Lake (Mill Pond),Chippewa,436,176.4,14,4.3,45.1489486,-91.3915032,Simple - Riverine,yes,no,n/a
2171500,Mary Jane Lake No. 1,Chippewa,11,4.5,20,6.1,45.1644449,-91.3619549,Simple - Warm - Dark,n/a,n/a,n/a
2171400,Mary Jane Lake No. 2,Chippewa,25,10.1,15,4.6,45.161665,-91.3587957,Simple - Warm - Dark,n/a,n/a,n/a
1865600,McDonald Lake,Chippewa,20,8.1,46,14.0,45.2834373,-91.4651701,Simple - Warm - Dark,n/a,n/a,n/a
2345500,Meadows Lake,Chippewa,10,4.0,20,6.1,45.2278871,-91.2622073,Simple - Warm - Dark,n/a,n/a,n/a
1865900,Metcalf Lake,Chippewa,4,1.6,12,3.7,45.2059063,-91.3386334,Simple - Warm - Dark,n/a,n/a,n/a
2185800,Miller Lake,Chippewa,5,2.0,16,4.9,45.2360952,-91.2308866,Simple - Harsh - Has Fishery,n/a,n/a,n/a
1867500,Moon Lake,Chippewa,15,6.1,11,3.4,45.1759751,-91.3575053,Simple - Harsh - Has Fishery,n/a,n/a,n/a
2174400,Mud Lake T30N R08W S24,Chippewa,18,7.3,14,4.3,45.0620839,-91.2943307,Simple - Warm - Dark,n/a,n/a,n/a
2171800,Mud Lake T31N R08W S08,Chippewa,23,9.3,4,1.2,45.1841108,-91.3797845,Simple - Warm - Dark,n/a,n/a,n/a
1867800,Mud Lake T32N R07W S29,Chippewa,8,3.2,6,1.8,45.2244569,-91.2679712,Simple - Harsh - No Fishery,n/a,n/a,n/a
1870700,No. 1 Lake T31N R08W S02,Chippewa,6,2.4,15,4.6,45.2029062,-91.3340665,Simple - Warm - Dark,n/a,n/a,n/a
2352800,No. 1 Lake T32N R08W S09,Chippewa,3,1.2,17,5.2,45.2708821,-91.3654807,Simple - Warm - Dark,n/a,n/a,n/a
2352900,No. 2 Lake,Chippewa,2,0.8,22,6.7,45.2733289,-91.366336,Simple - Warm - Dark,n/a,n/a,n/a
2353000,No. 3 Lake,Chippewa,3,1.2,32,9.8,45.2751931,-91.3660193,Simple - Warm - Dark,n/a,n/a,n/a
2353100,No. 4 Lake,Chippewa,1,0.4,18,5.5,45.2782251,-91.3649466,Simple - Warm - Dark,n/a,n/a,n/a
1871100,North of North Shattuck Lake,Chippewa,11,4.5,31,9.4,45.2275359,-91.4217927,Simple - Warm - Dark,n/a,n/a,n/a
1871200,Nut Lake,Chippewa,5,2.0,5,1.5,45.1993349,-91.2785316,Simple - Harsh - No Fishery,n/a,n/a,n/a
2179660,Odd Lake,Chippewa,2,0.8,30,9.1,45.1776403,-91.3069208,Simple - Warm - Dark,n/a,n/a,n/a
2174700,Old Abe Lake,Chippewa,1072,433.8,36,11.0,45.0703513,-91.255114,Complex - Riverine,n/a,n/a,n/a
2178100,Oliver Lake #1 T31N R08W S24,Chippewa,14,5.7,32,9.8,45.1530186,-91.304758,Simple - Warm - Dark,n/a,n/a,n/a
2178200,Oliver Lake #2 T31N R08W S24,Chippewa,4,1.6,62,18.9,45.1515111,-91.3139785,Simple - Warm - Dark,n/a,n/a,n/a
2178300,Oliver Lake #3 T31N R08W S23,Chippewa,6,2.4,48,14.6,45.1500067,-91.319318,Simple - Warm - Dark,n/a,n/a,n/a
2157000,Otter Lake (Brown),Chippewa,661,267.5,43,13.1,45.0711693,-90.9427028,Complex - Warm - Dark,no,no,n/a
1872300,Parker Lake,Chippewa,11,4.5,7,2.1,45.0887379,-91.291594,Simple - Harsh - No Fishery,n/a,n/a,n/a
1872600,Pauls Lake,Chippewa,7,2.8,17,5.2,45.2021885,-91.2828157,Simple - Harsh - Has Fishery,n/a,n/a,n/a
1872800,Payne Lake,Chippewa,3,1.2,21,6.4,45.2277599,-91.4166612,Simple - Warm - Dark,n/a,n/a,n/a
1874200,Pheffercorn Lake,Chippewa,15,6.1,4,1.2,45.0452983,-91.2531493,Simple - Harsh - No Fishery,n/a,n/a,n/a
2180500,Pickerel Lake T31N R08W S01,Chippewa,15,6.1,46,14.0,45.1940053,-91.3048099,Simple - Warm - Dark,n/a,n/a,n/a
1874300,Pickerel Lake T32N R08W S28,Chippewa,4,1.6,31,9.4,45.2203401,-91.3674254,Simple - Warm - Dark,n/a,n/a,n/a
2347000,Picnic Lake,Chippewa,25,10.1,46,14.0,45.2070629,-91.2787335,Simple - Warm - Dark,n/a,n/a,n/a
2157900,Pike Lake,Chippewa,192,77.7,37,11.3,45.0788588,-91.0787421,Simple - Warm - Clear,no,yes,n/a
1874900,Planning Lake,Chippewa,16,6.5,8,2.4,45.1859305,-91.2744293,Simple - Harsh - Has Fishery,n/a,n/a,n/a
2348700,Plummer Lake,Chippewa,41,16.6,28,8.5,45.217335,-91.3465515,Simple - Harsh - Has Fishery,no,no,n/a
